osm_type,osm_id,name,tourism,description,website,phone,email,opening_hours,wikidata,wikipedia,operator,district,latitude,longitude
node,1942507475,Lion statue,attraction,Not Available,Not Available,Not Available,Not Available,Not Available,Not Available,Not Available,Not Available,Bhaktapur,27.6721039,85.42898
node,2054092038,कैलाशनाथ महादेव मूर्ति / Kailashnath Mahadev Statue,attraction,Not Available,Not Available,Not Available,Not Available,Not Available,Not Available,Not Available,Not Available,Bhaktapur,27.6461439,85.474109
node,2060240290,Statue of Sleeping Narayan,attraction,Not Available,Not Available,Not Available,Not Available,Not Available,Not Available,Not Available,Not Available,Bhaktapur,27.6765998,85.4312982
node,2183344626,Nilbarahi Picnic spot,picnic_site,Not Available,Not Available,Not Available,Not Available,Not Available,Not Available,Not Available,Not Available,Bhaktapur,27.6951871,85.3960129
node,4235620291,Rames,viewpoint,Not Available,Not Available,Not Available,Not Available,Not Available,Not Available,Not Available,Not Available,Bhaktapur,27.6749671,85.3870724
node,4243026503,Barudkhana,viewpoint,Not Available,Not Available,Not Available,Not Available,Not Available,Not Available,Not Available,Not Available,Bhaktapur,27.6825695,85.4103121
node,4243029634,Shakhal Basti,viewpoint,Not Available,Not Available,Not Available,Not Available,Not Available,Not Available,Not Available,Not Available,Bhaktapur,27.6781793,85.4074757
node,4243030036,Dandipakha,viewpoint,Not Available,Not Available,Not Available,Not Available,Not Available,Not Available,Not Available,Not Available,Bhaktapur,27.6820235,85.4089415
node,4265554225,Divyeshwari guest house,guest_house,Not Available,Not Available,Not Available,Not Available,Not Available,Not Available,Not Available,Not Available,Bhaktapur,27.6763023,85.3880282
node,4324789213,Hotel Rudrakshya,hotel,Not Available,Not Available,Not Available,Not Available,Not Available,Not Available,Not Available,Not Available,Bhaktapur,27.7096081,85.4540659
node,4324884018,Hotel Sunrise,hotel,Not Available,Not Available,Not Available,Not Available,Not Available,Not Available,Not Available,Not Available,Bhaktapur,27.7107497,85.5034867
node,4325931190,International Green Developers Nepal,attraction,Not Available,http://gorkhaecopanel.com,5122026.0,info@gorkhaecopanel.com,24/7,Not Available,Not Available,Not Available,Bhaktapur,27.6670906,85.4428107
node,4348451709,chhyabasti,viewpoint,Not Available,Not Available,Not Available,Not Available,Not Available,Not Available,Not Available,Not Available,Bhaktapur,27.7172935,85.4683588
node,4348472318,Trisuldanda,attraction,Not Available,Not Available,Not Available,Not Available,Not Available,Not Available,Not Available,Not Available,Bhaktapur,27.7105508,85.4543074
node,4373340695,TOURIST GUIDE PROVIDER,information,Not Available,Not Available,9779860674052.0,beebayekkatwal109@gmail.com,Mo-Su 05:00-22:00,Not Available,Not Available,Not Available,Bhaktapur,27.6704701,85.3863919
node,5280998726,Gankhu dharamapur dol,attraction,Not Available,Not Available,Not Available,Not Available,Not Available,Not Available,Not Available,Not Available,Bhaktapur,27.6861196,85.3947658
node,5581298162,Hotel Panaroma Inn Restaurant & Bar,hotel,Not Available,Not Available,Not Available,Not Available,Not Available,Not Available,Not Available,Not Available,Bhaktapur,27.7182343,85.5186959
node,6499238763,Guru Ganesh Hair Cutting;Magam Ganesh,artwork,Not Available,Not Available,Not Available,Not Available,Not Available,Not Available,Not Available,Not Available,Bhaktapur,27.7170937,85.4284047
node,6499243432,Changu Museum,museum,Not Available,Not Available,Not Available,Not Available,Not Available,Not Available,Not Available,Not Available,Bhaktapur,27.7165172,85.4292412
node,6499299153,Swarga Art Healing School,artwork,Not Available,Not Available,Not Available,Not Available,Not Available,Not Available,Not Available,Not Available,Bhaktapur,27.7163046,85.4285593
node,6499299171,Sunshine Art Work Shop,artwork,Not Available,Not Available,Not Available,Not Available,Not Available,Not Available,Not Available,Not Available,Bhaktapur,27.7163772,85.4288266
node,6499299182,Changu Thanka Paimting School,artwork,Not Available,Not Available,Not Available,Not Available,Not Available,Not Available,Not Available,Not Available,Bhaktapur,27.716391,85.4289239
node,6501781254,Picnic Spot,picnic_site,Not Available,Not Available,Not Available,Not Available,Not Available,Not Available,Not Available,Not Available,Bhaktapur,27.7188579,85.4315766
node,6501781255,Picnic spot,picnic_site,Not Available,Not Available,Not Available,Not Available,Not Available,Not Available,Not Available,Not Available,Bhaktapur,27.7175407,85.4316446
node,6502071470,Shiv,artwork,Not Available,Not Available,Not Available,Not Available,Not Available,Not Available,Not Available,Not Available,Bhaktapur,27.7164307,85.4280712
node,6502173117,Vishworoop,artwork,Not Available,Not Available,Not Available,Not Available,Not Available,Not Available,Not Available,Not Available,Bhaktapur,27.716219,85.4278276
node,6502173118,Budanilkantha,artwork,Not Available,Not Available,Not Available,Not Available,Not Available,Not Available,Not Available,Not Available,Bhaktapur,27.7162037,85.4278179
node,6502174565,Praying statue of King and Queen,artwork,Not Available,Not Available,Not Available,Not Available,Not Available,Not Available,Not Available,Not Available,Bhaktapur,27.7164399,85.4278189
node,6502174566,Garudha statue,artwork,Not Available,Not Available,Not Available,Not Available,Not Available,Not Available,Not Available,Not Available,Bhaktapur,27.7164585,85.4278447
node,8009598335,Changunarayan,attraction,Not Available,Not Available,Not Available,Not Available,Not Available,Not Available,Not Available,Not Available,Bhaktapur,27.7162258,85.428356
node,8049278035,Kausaltar Aquarium House,aquarium,Not Available,Not Available,Not Available,Not Available,Not Available,Not Available,Not Available,Not Available,Bhaktapur,27.6741447,85.3651986
node,8826582438,King Birendra Bir Bikram Shah,artwork,Not Available,Not Available,Not Available,Not Available,Not Available,Not Available,Not Available,Not Available,Bhaktapur,27.6712632,85.4178502
node,9063324417,Sakha Kirana store,guest_house,Not Available,Not Available,Not Available,Not Available,Not Available,Not Available,Not Available,Manish Sakha,Bhaktapur,27.678514,85.4806957
node,9914495217,Pandu Bazar,apartment,Not Available,Not Available,Not Available,Not Available,Not Available,Not Available,Not Available,Not Available,Bhaktapur,27.660787,85.4207876
node,9956153338,Tiger Of Jiri Hotel,hotel,Not Available,Not Available,Not Available,Not Available,Not Available,Not Available,Not Available,Not Available,Bhaktapur,27.6749208,85.3624816
node,9999145675,Sagarmatha Hotel and Lodge,hotel,Not Available,Not Available,Not Available,Not Available,Not Available,Not Available,Not Available,Not Available,Bhaktapur,27.6745908,85.3556793
node,9999376980,A One Minawasi Hotel,hotel,Not Available,Not Available,Not Available,Not Available,Not Available,Not Available,Not Available,Not Available,Bhaktapur,27.6702964,85.3549726
node,10022345999,German Homes Hospitality EVENT VENUE/RESTRUNT & BAR,motel,Not Available,Not Available,Not Available,Not Available,Not Available,Not Available,Not Available,Not Available,Bhaktapur,27.6740412,85.3761426
node,10050712668,Chandra Krishna Hotel,hotel,Not Available,Not Available,Not Available,Not Available,Not Available,Not Available,Not Available,Not Available,Bhaktapur,27.6916277,85.3871869
node,10053738809,"Paryatak Suchana Kendra Madhyapur, Thimi",information,Not Available,Not Available,Not Available,Not Available,Not Available,Not Available,Not Available,Not Available,Bhaktapur,27.674106,85.3853586
node,10060007983,Tourism Information Centre,information,Not Available,Not Available,Not Available,Not Available,Not Available,Not Available,Not Available,Not Available,Bhaktapur,27.673964,85.3852822
node,10068876012,Balkumari Temple,attraction,Not Available,Not Available,Not Available,Not Available,Not Available,Not Available,Not Available,Not Available,Bhaktapur,27.6759475,85.3853144
node,10068876014,Dhungedhara,attraction,Not Available,Not Available,Not Available,Not Available,Not Available,Not Available,Not Available,Not Available,Bhaktapur,27.6747147,85.3850274
node,10081035119,Siwa Tole,attraction,Not Available,Not Available,Not Available,Not Available,Not Available,Not Available,Not Available,Not Available,Bhaktapur,27.6777491,85.3867212
node,10081035120,Nigu Pukhu,attraction,Not Available,Not Available,Not Available,Not Available,Not Available,Not Available,Not Available,Not Available,Bhaktapur,27.678356,85.3856376
node,10110364491,Sijan Guest House,guest_house,Not Available,Not Available,Not Available,Not Available,Not Available,Not Available,Not Available,Not Available,Bhaktapur,27.6731992,85.3815499
node,10220062533,R.S. Khaja Ghar,hotel,Not Available,Not Available,Not Available,Not Available,Mo-Su 07:00-20:00,Not Available,Not Available,Not Available,Bhaktapur,27.641779,85.4771774
node,10220062534,Mata Manakamana Bakery And Dairy Pasal,hotel,Not Available,Not Available,9841102814.0,Not Available,Mo-Su 07:00-20:00,Not Available,Not Available,Not Available,Bhaktapur,27.6418077,85.4772776
node,10220062535,Ronisha Store,hotel,Not Available,Not Available,9860146141.0,Not Available,Mo-Su 07:00-20:00,Not Available,Not Available,Not Available,Bhaktapur,27.6417974,85.4772743
node,10220062536,Pragya Cold Store,hotel,Not Available,Not Available,98414915817.0,Not Available,Mo-Su 07:00-20:00,Not Available,Not Available,Not Available,Bhaktapur,27.6417554,85.4771498
node,10833741289,Gam Dhoka Park,viewpoint,Not Available,Not Available,Not Available,Not Available,Not Available,Not Available,Not Available,Not Available,Bhaktapur,27.7170626,85.4261389
node,10877078523,Panaroma inn,hotel,Not Available,Not Available,Not Available,Not Available,Not Available,Not Available,Not Available,Not Available,Bhaktapur,27.7181889,85.5186394
node,11072634297,Golden Gate,guest_house,Not Available,Not Available,Not Available,Not Available,Not Available,Not Available,Not Available,Not Available,Bhaktapur,27.6717202,85.4288245
node,11224956738,Hostel Swastik,hostel,Not Available,Not Available,Not Available,Not Available,Not Available,Not Available,Not Available,Not Available,Bhaktapur,27.6757484,85.4341549
node,11361854869,सचेतना टोल प्रवेशद्वार,chalet,Not Available,Not Available,Not Available,Not Available,Not Available,Not Available,Not Available,Not Available,Bhaktapur,27.6790869,85.3631332
node,11413897089,होटेल घ्याम्पेडाँडा,hotel,Not Available,Not Available,Not Available,Not Available,Not Available,Not Available,Not Available,Not Available,Bhaktapur,27.6366905,85.4267282
node,11704312369,Hotel Rupakot restaurant & Rooftop,hotel,Not Available,Not Available,Not Available,Not Available,Not Available,Not Available,Not Available,Not Available,Bhaktapur,27.6703048,85.4281989
node,11933447018,Bhaktapur Guest House,guest_house,Not Available,Not Available,Not Available,Not Available,Not Available,Not Available,Not Available,Not Available,Bhaktapur,27.6715455,85.4222716
node,11933491594,Kanchanjunga Guest House and Special Bhancha Ghar,guest_house,Not Available,Not Available,Not Available,Not Available,Not Available,Not Available,Not Available,Not Available,Bhaktapur,27.6715059,85.4221145
node,11933612745,khwopa Guest House,guest_house,Not Available,Not Available,Not Available,Not Available,Not Available,Not Available,Not Available,Not Available,Bhaktapur,27.670375,85.4286301
node,11933631476,Sunny Guest House,guest_house,Not Available,Not Available,Not Available,Not Available,Not Available,Not Available,Not Available,Not Available,Bhaktapur,27.6713202,85.4297063
node,11934388511,Moon Light Guest House & Rootop Newari Foodland,guest_house,Not Available,Not Available,Not Available,Not Available,Not Available,Not Available,Not Available,Not Available,Bhaktapur,27.6715904,85.4300141
node,11934473419,Big Bell Guest House,guest_house,Not Available,Not Available,Not Available,Not Available,Not Available,Not Available,Not Available,Not Available,Bhaktapur,27.6727407,85.4345282
node,11934473524,Pradhan House Homestay,guest_house,Not Available,Not Available,Not Available,Not Available,Not Available,Not Available,Not Available,Not Available,Bhaktapur,27.6733744,85.4348481
node,11934484488,Peacock Guest House,guest_house,Not Available,Not Available,Not Available,Not Available,Not Available,Not Available,Not Available,Not Available,Bhaktapur,27.6733868,85.4349889
node,11934802170,Brass & Bronze Museum,museum,Not Available,Not Available,Not Available,Not Available,Not Available,Not Available,Not Available,Not Available,Bhaktapur,27.6737206,85.435587
node,12135402392,Tujala Boutique Hotel,hotel,Not Available,Not Available,Not Available,Not Available,Not Available,Not Available,Not Available,Not Available,Bhaktapur,27.6729253,85.4292349
node,12287948902,Pottery Square (Talako Tole),attraction,Not Available,Not Available,Not Available,Not Available,Not Available,Not Available,Not Available,Not Available,Bhaktapur,27.669897,85.427743
node,12288007901,Cremation Site,attraction,Not Available,Not Available,Not Available,Not Available,Not Available,Not Available,Not Available,Not Available,Bhaktapur,27.668279,85.4307257
node,12289963601,Thanthu Dubar,attraction,Not Available,Not Available,Not Available,Not Available,Not Available,Not Available,Not Available,Not Available,Bhaktapur,27.6723335,85.4284866
node,12289964101,Yamadvar chowk,attraction,Not Available,Not Available,Not Available,Not Available,Not Available,Not Available,Not Available,Not Available,Bhaktapur,27.6722731,85.4283818
node,12290017218,Hotel Vintage Home,hotel,Not Available,Not Available,Not Available,Not Available,Not Available,Not Available,Not Available,Not Available,Bhaktapur,27.673088,85.4292054
node,12290017909,Hotel Layaku Durbar,hotel,Not Available,Not Available,Not Available,Not Available,Not Available,Not Available,Not Available,Not Available,Bhaktapur,27.6734199,85.429187
node,12290024003,Hotel Durbar Side,hotel,Not Available,Not Available,Not Available,Not Available,Not Available,Not Available,Not Available,Not Available,Bhaktapur,27.6733524,85.4292378
node,12291429901,Bhajyu Pukhu,attraction,Not Available,Not Available,Not Available,Not Available,Not Available,Not Available,Not Available,Not Available,Bhaktapur,27.670594,85.4209291
node,13307960101,Manju Baha Hotel School,hotel,Not Available,Not Available,9779767234014.0,Not Available,Not Available,Not Available,Not Available,Not Available,Bhaktapur,27.6748394,85.4337653
way,186261908,Hotel Planet Bhaktapur,hotel,Not Available,Not Available,Not Available,Not Available,Not Available,Not Available,Not Available,Not Available,Bhaktapur,27.681936481285668,85.43023699350563
way,186264410,Changu Narayan Temple,attraction,Not Available,Not Available,Not Available,Not Available,Not Available,Q1062150,en:Changu Narayan,Not Available,Bhaktapur,27.71634702094824,85.42789685828964
way,211080700,Rameshwar temple,attraction,Not Available,Not Available,Not Available,Not Available,Not Available,Not Available,Not Available,Not Available,Bhaktapur,27.67226382563795,85.4273923925574
way,211080702,Badrinath Tirtha,attraction,Not Available,Not Available,Not Available,Not Available,Not Available,Not Available,Not Available,Not Available,Bhaktapur,27.6721295,85.4273817
way,215469710,Nabin Tanbee Restaurant and Guest House,guest_house,Not Available,Not Available,Not Available,Not Available,Not Available,Not Available,Not Available,Not Available,Bhaktapur,27.674980068458,85.36328919440311
way,227958650,Pilot Baba Ashram,attraction,Not Available,Not Available,Not Available,Not Available,Not Available,Not Available,Not Available,Not Available,Bhaktapur,27.640524132844853,85.42251986220002
way,341457774,Bhanubhakta Hostel,hostel,Not Available,Not Available,Not Available,Not Available,Not Available,Not Available,Not Available,Not Available,Bhaktapur,27.674493744300893,85.41762797081212
way,341470925,Devkota Hostel,hostel,Not Available,Not Available,Not Available,Not Available,Not Available,Not Available,Not Available,Not Available,Bhaktapur,27.67442221838628,85.4166829175917
way,341470926,Lekhnath Hostel,hostel,Not Available,Not Available,Not Available,Not Available,Not Available,Not Available,Not Available,Not Available,Bhaktapur,27.6746932122786,85.41672332926746
way,341470927,Araniko Hostel,hostel,Not Available,Not Available,Not Available,Not Available,Not Available,Not Available,Not Available,Not Available,Bhaktapur,27.674108642261952,85.41748922275144
way,341776797,The Nest Guest Gouse,guest_house,Not Available,Not Available,Not Available,Not Available,Not Available,Not Available,Not Available,Not Available,Bhaktapur,27.717061478576746,85.4264251425895
way,344238868,Siddhartha Hostel,hostel,Not Available,Not Available,Not Available,Not Available,Not Available,Not Available,Not Available,Not Available,Bhaktapur,27.67115858892782,85.41678750475258
way,495632720,Gehendra Hostel,hostel,Not Available,Not Available,Not Available,Not Available,Not Available,Not Available,Not Available,Not Available,Bhaktapur,27.67389981856484,85.41612574313126
way,495632722,Amarsingh Hostel,hostel,Not Available,Not Available,Not Available,Not Available,Not Available,Not Available,Not Available,Not Available,Bhaktapur,27.673740702584908,85.41669413676519
way,495632726,Balmiki Hostel,hostel,Not Available,Not Available,Not Available,Not Available,Not Available,Not Available,Not Available,Not Available,Bhaktapur,27.67125767127138,85.41604163233029
way,495632745,Chyasing Mandap,attraction,Not Available,Not Available,Not Available,Not Available,Not Available,Not Available,Not Available,Not Available,Bhaktapur,27.672095374802527,85.42850989432542
way,509570330,Hotel Manohara,hotel,Not Available,Not Available,Not Available,Not Available,Not Available,Not Available,Not Available,Not Available,Bhaktapur,27.681330668720307,85.36070893309571
way,954153629,Exchange,information,Not Available,Not Available,Not Available,Not Available,Su-Sa 05:00-22:00,Not Available,Not Available,Not Available,Bhaktapur,27.67145070518034,85.41772962408534
way,1174919554,Silver Mountain,hotel,Not Available,Not Available,Not Available,Not Available,Not Available,Not Available,Not Available,Not Available,Bhaktapur,27.718152527003603,85.51825600658741
way,1174920526,Gaurisankhar,hotel,Not Available,Not Available,Not Available,Not Available,Not Available,Not Available,Not Available,Not Available,Bhaktapur,27.718166835251456,85.51780954173464
way,1470255732,Homestay Inn,hotel,Not Available,Not Available,Not Available,Not Available,Not Available,Not Available,Not Available,Not Available,Bhaktapur,27.68104120268043,85.36393299289706
node,567131171,Wildlife Camp,hotel,Not Available,Not Available,Not Available,Not Available,Not Available,Not Available,Not Available,Not Available,Chitwan,27.5796638,84.4944877
node,567142203,Tharu Cultural Museum,museum,Not Available,Not Available,Not Available,Not Available,Not Available,Not Available,Not Available,Not Available,Chitwan,27.581435,84.5084926
node,567142502,Chitwan National Park Info Office,information,Not Available,Not Available,Not Available,Not Available,Not Available,Not Available,Not Available,Not Available,Chitwan,27.5741111,84.4937879
node,567151136,Elephant Riding,attraction,Not Available,Not Available,Not Available,Not Available,Not Available,Not Available,Not Available,Not Available,Chitwan,27.5943703,84.4814665
node,1036992010,Chitwan Forest Resort,hotel,Not Available,https://chitwanforestresort.com/,056580052; 9855062052,chitwanforestresort@gmail.com,Not Available,Not Available,Not Available,Not Available,Chitwan,27.5814939,84.4933201
node,1036992013,Wendy's Lodge,guest_house,Not Available,Not Available,Not Available,Not Available,Not Available,Not Available,Not Available,Not Available,Chitwan,27.579975,84.4939485
node,1036992015,Hambro Hotel,hotel,Not Available,Not Available,Not Available,Not Available,Not Available,Not Available,Not Available,Not Available,Chitwan,27.575503,84.4934985
node,1036992016,Hotel Nature Heritage,guest_house,Not Available,Not Available,056580432,nature.heritage@hotmail.com,Not Available,Not Available,Not Available,Not Available,Chitwan,27.5752772,84.4938066
node,1036992017,Hotel Riverside,guest_house,Not Available,Not Available,Not Available,Not Available,Not Available,Not Available,Not Available,Not Available,Chitwan,27.5757228,84.4935964
node,1036992019,Royal Park Hotel,hotel,Not Available,Not Available,Not Available,Not Available,Not Available,Not Available,Not Available,Not Available,Chitwan,27.5766044,84.4942566
node,1036992020,Rhino Lodge,guest_house,Not Available,Not Available,Not Available,Not Available,Not Available,Not Available,Not Available,Not Available,Chitwan,27.577962,84.4938869
node,1036992021,Jungle Safari Lodge,guest_house,Not Available,Not Available,Not Available,Not Available,Not Available,Not Available,Not Available,Not Available,Chitwan,27.5783811,84.4943653
node,1036992022,River View Jungle Camp,guest_house,Not Available,Not Available,Not Available,Not Available,Not Available,Not Available,Not Available,Not Available,Chitwan,27.5785862,84.4939309
node,1036992023,Chitwan Resort and Camp,hotel,Not Available,Not Available,Not Available,Not Available,Not Available,Not Available,Not Available,Not Available,Chitwan,27.5795771,84.4939309
node,1038273465,Elephant Safari Resort,guest_house,Not Available,Not Available,Not Available,Not Available,Not Available,Not Available,Not Available,Not Available,Chitwan,27.5839582,84.4676585
node,1038273470,Paradise Hotel,hotel,Not Available,Not Available,Not Available,Not Available,Not Available,Not Available,Not Available,Not Available,Chitwan,27.5830949,84.4877969
node,1038273473,Jungle Lodge Hotel,hotel,Not Available,Not Available,Not Available,Not Available,Not Available,Not Available,Not Available,Not Available,Chitwan,27.5810427,84.4934679
node,1341052505,Lodge,hotel,Not Available,Not Available,Not Available,Not Available,Not Available,Not Available,Not Available,Not Available,Chitwan,27.5823681,84.4951611
node,1341052548,Safari Adventure Lodge,hotel,Not Available,Not Available,Not Available,Not Available,Not Available,Not Available,Not Available,Not Available,Chitwan,27.5850688,84.473262
node,1527166789,Tiger Tops Tented Camp,camp_site,Not Available,Not Available,Not Available,Not Available,Not Available,Not Available,Not Available,Not Available,Chitwan,27.5270961,84.2241729
node,1527166847,Tiger Tops Jungle Lodge,hotel,Not Available,Not Available,Not Available,Not Available,Not Available,Not Available,Not Available,Tiger Tops,Chitwan,27.5416948,84.1900766
node,1534450701,Sapana Lodge,hotel,Not Available,Not Available,Not Available,Not Available,Not Available,Not Available,Not Available,Not Available,Chitwan,27.5897518,84.491939
node,1537553863,Jungle Sunset hotel,hotel,Not Available,Not Available,Not Available,Not Available,Not Available,Not Available,Not Available,Not Available,Chitwan,27.5788472,84.4924548
node,1656837339,Eden Jungle Resort,hotel,Not Available,Not Available,Not Available,Not Available,Not Available,Not Available,Not Available,Not Available,Chitwan,27.5752776,84.5002433
node,1656837342,Hotel Parkland,hotel,Not Available,Not Available,Not Available,Not Available,Not Available,Not Available,Not Available,Not Available,Chitwan,27.5768136,84.4987172
node,1960276756,Red Karpet,hotel,Not Available,Not Available,Not Available,Not Available,Not Available,Not Available,Not Available,Not Available,Chitwan,27.6913845,84.4258888
node,2318449855,Jungle Resort Hotel,hotel,Not Available,Not Available,Not Available,Not Available,Not Available,Not Available,Not Available,Not Available,Chitwan,27.5825038,84.4888158
node,2318482509,Butterfly Hotel,hotel,Not Available,Not Available,Not Available,Not Available,Not Available,Not Available,Not Available,Not Available,Chitwan,27.5744339,84.4983694
node,2456662953,Global Hotel Reception,hotel,Not Available,Not Available,Not Available,Not Available,Not Available,Not Available,Not Available,Not Available,Chitwan,27.6816845,84.43113
node,3040917660,Baghmara Wildlife Resort,hotel,Not Available,Not Available,Not Available,Not Available,Not Available,Not Available,Not Available,Not Available,Chitwan,27.5930023,84.4834844
node,3144947770,Riverside Springs Resort,hotel,Not Available,Not Available,Not Available,Not Available,Not Available,Not Available,Not Available,Not Available,Chitwan,27.8746269,84.616457
node,3212153306,Chitwan medical college hostel,hostel,Not Available,Not Available,Not Available,Not Available,Not Available,Not Available,Not Available,Not Available,Chitwan,27.69027,84.4350488
node,3343068477,anamol hotel,hotel,Not Available,Not Available,Not Available,Not Available,Not Available,Not Available,Not Available,Not Available,Chitwan,27.701038,84.4285126
node,3343357059,Hotel Muktinath,hotel,Not Available,Not Available,Not Available,Not Available,Not Available,Not Available,Not Available,Not Available,Chitwan,27.6979595,84.4209567
node,3343360370,narayani bhojanalaya,hotel,Not Available,Not Available,Not Available,Not Available,Not Available,Not Available,Not Available,Not Available,Chitwan,27.6997193,84.4245334
node,3343362294,new gita hotel.com,hotel,Not Available,Not Available,Not Available,Not Available,Not Available,Not Available,Not Available,Not Available,Chitwan,27.698329,84.4215766
node,3343362295,welcome khaja ghar,hotel,Not Available,Not Available,Not Available,Not Available,Not Available,Not Available,Not Available,Not Available,Chitwan,27.6983001,84.421511
node,3343362302,hotel satunchali,hotel,Not Available,Not Available,Not Available,Not Available,Not Available,Not Available,Not Available,Not Available,Chitwan,27.7032944,84.4313618
node,3343362899,hotel tirupati,hotel,Not Available,Not Available,Not Available,Not Available,Not Available,Not Available,Not Available,Not Available,Chitwan,27.6978612,84.4206381
node,3345298956,pancha kanya parti placee,party_palace,Not Available,Not Available,Not Available,Not Available,Not Available,Not Available,Not Available,Not Available,Chitwan,27.7001636,84.42447
node,3366227355,image,hotel,Not Available,Not Available,Not Available,Not Available,Not Available,Not Available,Not Available,Not Available,Chitwan,27.7030259,84.4308853
node,3374636659,lama hotel,hotel,Not Available,Not Available,Not Available,Not Available,Not Available,Not Available,Not Available,Not Available,Chitwan,27.6897408,84.4353475
node,3380882370,Paudel Khaja Ghar,hotel,Not Available,Not Available,Not Available,Not Available,Not Available,Not Available,Not Available,Not Available,Chitwan,27.6868222,84.4294169
node,3392269854,gorkhali khaja fhar,hotel,Not Available,Not Available,Not Available,Not Available,Not Available,Not Available,Not Available,Not Available,Chitwan,27.6878591,84.4316796
node,3392281246,subhakamana girls hostel,hostel,Not Available,Not Available,Not Available,Not Available,Not Available,Not Available,Not Available,Not Available,Chitwan,27.6889924,84.4337166
node,3392281249,Hotel Sky,hotel,Not Available,Not Available,Not Available,Not Available,Not Available,Not Available,Not Available,Not Available,Chitwan,27.6830973,84.4309539
node,3392281259,hotel ashoka,hotel,Not Available,Not Available,Not Available,Not Available,Not Available,Not Available,Not Available,Not Available,Chitwan,27.6851602,84.4294532
node,3392281649,namaste party palace,hotel,Not Available,Not Available,Not Available,Not Available,Not Available,Not Available,Not Available,Not Available,Chitwan,27.6723394,84.4327636
node,3392281652,chaar tale hotel,hotel,Not Available,Not Available,Not Available,Not Available,Not Available,Not Available,Not Available,Not Available,Chitwan,27.6740316,84.4320509
node,3392281800,holiday party venue,hotel,Not Available,Not Available,Not Available,Not Available,Not Available,Not Available,Not Available,Not Available,Chitwan,27.6675541,84.4223473
node,3392283800,Dipanjali Girls Hostel,hostel,Not Available,Not Available,Not Available,Not Available,Not Available,Not Available,Not Available,Not Available,Chitwan,27.6870242,84.4313805
node,3392361327,CFC,hotel,Not Available,Not Available,Not Available,Not Available,Not Available,Not Available,Not Available,Not Available,Chitwan,27.6833385,84.4337483
node,3392361333,aasha manakamana girls hostel,hostel,Not Available,Not Available,Not Available,Not Available,Not Available,Not Available,Not Available,Not Available,Chitwan,27.6743327,84.4359605
node,3392362856,CMT Resort,hotel,Not Available,https://www.cmtresort.com/,+977 9855061992,Not Available,Not Available,Not Available,Not Available,Not Available,Chitwan,27.6704041,84.437481
node,3393435244,Galaxy Guest House,guest_house,Not Available,Not Available,Not Available,Not Available,Not Available,Not Available,Not Available,Not Available,Chitwan,27.7032463,84.4333816
node,3393435245,Hotel Royal Satanchuli,hotel,Not Available,Not Available,Not Available,Not Available,Not Available,Not Available,Not Available,Not Available,Chitwan,27.7033307,84.4327105
node,3393435706,Laliguras hotel and guest house,hotel,Not Available,Not Available,Not Available,Not Available,Not Available,Not Available,Not Available,Not Available,Chitwan,27.7026636,84.4322886
node,3397858914,little flower hostel,hostel,Not Available,Not Available,Not Available,Not Available,Not Available,Not Available,Not Available,Not Available,Chitwan,27.6855474,84.4128505
node,3453242679,Tikauli Biodiversity Information Center,information,Not Available,Not Available,Not Available,Not Available,Not Available,Not Available,Not Available,Not Available,Chitwan,27.6354895,84.4819711
node,3453243497,Hotel Star Chitwan Pvt. Ltd.,hotel,Not Available,hotalstarchitwan.com,056-560992,info@hotalstarchitwan.com,Not Available,Not Available,Not Available,Not Available,Chitwan,27.6250055,84.5027112
node,3673012564,Landmark forest park,hotel,Not Available,Not Available,Not Available,Not Available,Not Available,Not Available,Not Available,Not Available,Chitwan,27.5876832,84.4843642
node,3741083586,Barahi Jungle Lodge,hotel,Not Available,http://www.barahijunglelodge.com/,+977 56 695447; 4411113,jungle@barahi.com,Not Available,Not Available,Not Available,Pungdundee Safaris,Chitwan,27.5688625,84.1958172
node,3800190161,Chaudhary Hotel,hotel,Not Available,Not Available,Not Available,Not Available,Not Available,Not Available,Not Available,Not Available,Chitwan,27.5815294,84.2095446
node,4206968201,Anish Khaja Ghar and Guest House,guest_house,Not Available,Not Available,Not Available,Not Available,Not Available,Not Available,Not Available,Not Available,Chitwan,27.8559212,84.5600853
node,4206968204,Gorkha Hotel and Guest House,guest_house,Not Available,Not Available,Not Available,Not Available,Not Available,Not Available,Not Available,Not Available,Chitwan,27.8560954,84.5603565
node,4206968205,Ikshya Kamana Cold Store and Guest House,guest_house,Not Available,Not Available,Not Available,Not Available,Not Available,Not Available,Not Available,Not Available,Chitwan,27.8562287,84.5606035
node,4206968206,Nawadurga Hotel and Lodge,guest_house,Not Available,Not Available,Not Available,Not Available,Not Available,Not Available,Not Available,Not Available,Chitwan,27.8558694,84.5599867
node,4206968208,Prem Hotel and Lodge,guest_house,Not Available,Not Available,Not Available,Not Available,Not Available,Not Available,Not Available,Not Available,Chitwan,27.8557724,84.5598074
node,4206968210,Royal Gorkhali Restaurant and Guest House,guest_house,Not Available,Not Available,Not Available,Not Available,Not Available,Not Available,Not Available,Not Available,Chitwan,27.8559117,84.5600504
node,4206968213,Triveni Khaja Ghar and Guest House,guest_house,Not Available,Not Available,Not Available,Not Available,Not Available,Not Available,Not Available,Not Available,Chitwan,27.8562038,84.5605472
node,4212091089,Kaushila Hotel & Lodge,hotel,Not Available,Not Available,Not Available,Not Available,Not Available,Not Available,Not Available,Not Available,Chitwan,27.663182,84.4185776
node,4219901192,Shivaghat,attraction,Not Available,Not Available,Not Available,Not Available,Not Available,Not Available,Not Available,Not Available,Chitwan,27.6774925,84.3772672
node,4227043690,bhusal niwash,artwork,Not Available,Not Available,Not Available,Not Available,Not Available,Not Available,Not Available,Not Available,Chitwan,27.5813733,84.2434003
node,4230713801,Balaji,hotel,Not Available,Not Available,Not Available,Not Available,Not Available,Not Available,Not Available,Not Available,Chitwan,27.6980517,84.4214334
node,4265734308,Holy Lodge,hotel,Not Available,Not Available,Not Available,Not Available,Not Available,Not Available,Not Available,Not Available,Chitwan,27.5752918,84.4934753
node,4297051424,My home,guest_house,Not Available,Not Available,056582043,Not Available,Not Available,Not Available,Not Available,Not Available,Chitwan,27.6135806,84.5618843
node,4316610430,Abdullah Hotel,hotel,Not Available,Not Available,Not Available,Not Available,Not Available,Not Available,Not Available,Not Available,Chitwan,27.8565424,84.5622377
node,4316610431,Binaya Guest House,hotel,Not Available,Not Available,Not Available,Not Available,Not Available,Not Available,Not Available,Not Available,Chitwan,27.8567338,84.5625878
node,4316610432,Bisauni Hotel & Guesthouse,hotel,Not Available,Not Available,Not Available,Not Available,Not Available,Not Available,Not Available,Not Available,Chitwan,27.8566627,84.5624703
node,4316610433,Hotel Mugling,hotel,Not Available,Not Available,056540059,Not Available,Not Available,Not Available,Not Available,Not Available,Chitwan,27.8565315,84.561233
node,4316610434,Machhaouchhre Hotel & Lodge,hotel,Not Available,Not Available,Not Available,Not Available,Not Available,Not Available,Not Available,Not Available,Chitwan,27.8563925,84.5609126
node,4316610435,Madani Hotel,hotel,Not Available,Not Available,9847286148,Not Available,Not Available,Not Available,Not Available,Not Available,Chitwan,27.8567929,84.562709
node,4316610436,Mugling Guest House,hotel,Not Available,Not Available,Not Available,Not Available,Not Available,Not Available,Not Available,Not Available,Chitwan,27.8565752,84.5622983
node,4316610437,Thakali Kalpan Hotel,hotel,Not Available,Not Available,Not Available,Not Available,Not Available,Not Available,Not Available,Not Available,Chitwan,27.8567644,84.5626497
node,4356723195,Pandit House,guest_house,Not Available,http://www.sunilpt.wordpress.com,9845813546,batterysunilcell@gmail.com,24/7,Not Available,Not Available,Network center,Chitwan,27.6423204,84.2989437
node,4382219391,Hotel Elephant Camp & Korean Restaurant,hotel,Not Available,https://www.hotelelephantcamp.com/,Not Available,himalayancgroup@gmail.com,Not Available,Not Available,Not Available,Mr.Gyan Bdr.Thapa,Chitwan,27.5768524,84.4956573
node,4709801553,Tharu 20for7,guest_house,Not Available,Not Available,Not Available,Not Available,Not Available,Not Available,Not Available,Not Available,Chitwan,27.5945952,84.4972996
node,4827150821,National Park HQ (gharial breeding project),attraction,Not Available,Not Available,Not Available,Not Available,Not Available,Not Available,Not Available,Not Available,Chitwan,27.5533728,84.339029
node,4851277821,Hari,guest_house,Not Available,http://www.offlinemaps.co.uk,9821803139,haric5173@gmail.com,Not Available,Not Available,Not Available,Ncell,Chitwan,27.5999256,84.4956161
node,4851277822,Isha house,guest_house,Not Available,Not Available,Not Available,Not Available,Not Available,Not Available,Not Available,Not Available,Chitwan,27.6899963,84.5078227
node,4934107021,English,information,Not Available,http://www.taiaonepal.com,+9779846999456,ecowildernesstours@gmail.com,24/7,Not Available,Not Available,Not Available,Chitwan,27.6865056,84.529685
node,5003246523,oasis medical college,hostel,Not Available,Not Available,Not Available,Not Available,Not Available,Not Available,Not Available,Not Available,Chitwan,27.6884248,84.4324255
node,5052331778,Chilax House,hotel,Not Available,Not Available,056-580260,Not Available,Not Available,Not Available,Not Available,Not Available,Chitwan,27.5757106,84.4978129
node,5252097841,Elephants,attraction,Not Available,Not Available,Not Available,Not Available,Not Available,Not Available,Not Available,Not Available,Chitwan,27.5732814,84.5013061
node,5521452233,Option Be Hostel,hotel,Not Available,Not Available,Not Available,Not Available,Not Available,Not Available,Not Available,Not Available,Chitwan,27.5768937,84.4925294
node,5911890137,Happy Lemon Tree Lodge,hotel,Not Available,https://www.happylemontreelodge.com/,+977-9845500576 / 9809283551,happylemontreelodge@gmail.com,Not Available,Not Available,Not Available,Dharmik & Juliette,Chitwan,27.5816322,84.4910096
node,6141714885,Safari Narayani Hotel,hotel,Not Available,https://www.safarinarayani.com.np/,056694441; 9851103118,info@safarinarayani.com.np,24/7,Not Available,Not Available,Not Available,Chitwan,27.5686403,84.365329
node,6217292733,Tiger Corner Inn,hotel,Not Available,Not Available,Not Available,Not Available,Not Available,Not Available,Not Available,Not Available,Chitwan,27.5754746,84.5026544
node,6398106983,Hotel peacock,hotel,Not Available,Not Available,9845069960,bishwashpoudel12345@gmail.com; hotelpeacock123@gmail.com,Not Available,Not Available,Not Available,Not Available,Chitwan,27.5804469,84.4937884
node,6487395354,Rhino Land Jungle Lodge,hotel,Not Available,https://www.rhinolandchitwan.com,Not Available,Not Available,Not Available,Not Available,Not Available,Not Available,Chitwan,27.5775564,84.4950832
node,6634216086,Presidency Resort,hotel,Not Available,https://www.presidencyresort.com.np/,Not Available,Not Available,Not Available,Not Available,Not Available,Not Available,Chitwan,27.7791454,84.4527317
node,6984131811,Safari Wildlife Lodge & Camp,hotel,Not Available,Not Available,Not Available,Not Available,Not Available,Not Available,Not Available,Not Available,Chitwan,27.5755055,84.4996774
node,7669203800,Ground (Open space),camp_site,Not Available,Not Available,Not Available,Not Available,Not Available,Not Available,Not Available,Not Available,Chitwan,27.6900737,84.430519
node,9521953503,Madina Hotel,hotel,Not Available,Not Available,Not Available,Not Available,Not Available,Not Available,Not Available,Not Available,Chitwan,27.8566424,84.5615321
node,9521953506,Aama Hotel,hotel,Not Available,Not Available,Not Available,Not Available,Not Available,Not Available,Not Available,Not Available,Chitwan,27.8568609,84.561997
node,9521953507,New Madina Hotel,hotel,Not Available,Not Available,Not Available,Not Available,Not Available,Not Available,Not Available,Not Available,Chitwan,27.8569178,84.5620989
node,9521953512,Narayan Bicaneri Hotel,hotel,Not Available,Not Available,Not Available,Not Available,Not Available,Not Available,Not Available,Not Available,Chitwan,27.857091,84.5625306
node,9522055161,Shrestha Guest House,hotel,Not Available,Not Available,Not Available,Not Available,Not Available,Not Available,Not Available,Not Available,Chitwan,27.8767171,84.5923546
node,9522055164,Sainik Hotel and Guest House,hotel,Not Available,Not Available,Not Available,Not Available,Not Available,Not Available,Not Available,Not Available,Chitwan,27.8768362,84.5921848
node,9522055166,Hotel Bhu. Pu. Sainik Khaja Ghar and Guest House,hotel,Not Available,Not Available,Not Available,Not Available,Not Available,Not Available,Not Available,Not Available,Chitwan,27.8768957,84.5921826
node,10083284991,Memorial Park View Tower,viewpoint,Not Available,Not Available,Not Available,Not Available,Not Available,Not Available,Not Available,Not Available,Chitwan,27.6557118,84.284897
node,10083390106,Ethnic Tharu Museum,museum,Not Available,Not Available,Not Available,Not Available,Not Available,Not Available,Not Available,Not Available,Chitwan,27.6164679,84.2419358
node,10875093919,Hotel Rhino Land,hotel,"Namaste, dear visitor!

Welcome to Hotel Rhino Land, the perfect place for those who travel on a budget. We are ideally located, in a very quiet and peaceful neighbourhood, close to the elephants’ stables, just 3 minutes walking from the town center.",https://hotelrhinoland.com/,9+977984-5065547,Not Available,Not Available,Not Available,Not Available,Not Available,Chitwan,27.5777098,84.4993652
node,10926757907,Hotel Blue Sky,hotel,Not Available,Not Available,Not Available,suraglamsal36@gmail.com,Not Available,Not Available,Not Available,Not Available,Chitwan,27.6019558,84.4824051
node,11021810386,Ashoka Resort,hotel,Not Available,https://resortashoka.com/,9813252214,info@resortashoka.com,Not Available,Not Available,Not Available,Not Available,Chitwan,27.7784437,84.4536155
node,11208824057,Chitwan Gaida Lodge,hostel,Not Available,www.gaidalodge.com,+977 9845239509,gaidalodge@gmail.com,Not Available,Not Available,Not Available,Sagar Giri,Chitwan,27.5744515,84.4992537
node,11391696969,जे पी भेटवाल पार्क,attraction,Not Available,Not Available,Not Available,Not Available,24/7,Not Available,Not Available,Not Available,Chitwan,27.5963771,84.6435843
node,11397080162,Canoe Tours departure,attraction,Not Available,Not Available,Not Available,Not Available,Not Available,Not Available,Not Available,Not Available,Chitwan,27.5750639,84.4924386
node,11428709869,उपरदाङ गढी,attraction,Not Available,Not Available,Not Available,Not Available,24/7,Not Available,Not Available,Not Available,Chitwan,27.7619768,84.5827762
node,11709402769,सिमसार जङ्गल रिसोर्ट,hotel,Not Available,Not Available,Not Available,Not Available,Not Available,Not Available,Not Available,Not Available,Chitwan,27.5672598,84.5457159
node,11815975469,Hotel National Park Sauraha,hotel,Not Available,https://www.booking.com/hotel/np/national-park.en-gb.html?,+9779845155749,peaceful.cottage0@gmail.com,Mo-Su 06:00-22:00,Not Available,Not Available,Not Available,Chitwan,27.5784279,84.4999119
node,11982476191,Laligurash Hotel & Lodge,guest_house,Not Available,Not Available,Not Available,Not Available,Not Available,Not Available,Not Available,Not Available,Chitwan,27.6773442,84.430967
node,11984964143,Luv Kush Hotel & Lodge,guest_house,Not Available,Not Available,Not Available,Not Available,Not Available,Not Available,Not Available,Not Available,Chitwan,27.6707192,84.4397512
node,11984985108,Kavreli Staff Hotel,guest_house,Not Available,Not Available,Not Available,Not Available,Not Available,Not Available,Not Available,Not Available,Chitwan,27.6706694,84.4403628
node,11984998119,Janta Hotel & Lodge,guest_house,Not Available,Not Available,Not Available,Not Available,Not Available,Not Available,Not Available,Not Available,Chitwan,27.6699805,84.438274
node,11985007209,Ale Hotel,guest_house,Not Available,Not Available,Not Available,Not Available,Not Available,Not Available,Not Available,Not Available,Chitwan,27.6676258,84.4382773
node,11985023748,Hotel Dhaulagiri,guest_house,Not Available,Not Available,Not Available,Not Available,Not Available,Not Available,Not Available,Not Available,Chitwan,27.6699092,84.4382519
node,11985031882,Bhairab Hotel & Lodge,guest_house,Not Available,Not Available,Not Available,Not Available,Not Available,Not Available,Not Available,Not Available,Chitwan,27.6681899,84.4380896
node,11985034151,Hotel Gorkha Palace Lodge & Restaurant,guest_house,Not Available,Not Available,Not Available,Not Available,Not Available,Not Available,Not Available,Not Available,Chitwan,27.6685777,84.4381043
node,11985034163,Lama Hotel,guest_house,Not Available,Not Available,Not Available,Not Available,Not Available,Not Available,Not Available,Not Available,Chitwan,27.6668519,84.4379072
node,11985034521,Hotel Old House,guest_house,Not Available,Not Available,Not Available,Not Available,Not Available,Not Available,Not Available,Not Available,Chitwan,27.6680522,84.4380695
node,11985035502,Ilamely Hotel & Lodge,guest_house,Not Available,Not Available,Not Available,Not Available,Not Available,Not Available,Not Available,Not Available,Chitwan,27.6681508,84.4380748
node,11985036646,Ashika Hotel & Lodge,guest_house,Not Available,Not Available,Not Available,Not Available,Not Available,Not Available,Not Available,Not Available,Chitwan,27.668222,84.4380949
node,11985042680,Chaudari Staff Hotel,guest_house,Not Available,Not Available,Not Available,Not Available,Not Available,Not Available,Not Available,Not Available,Chitwan,27.6684008,84.4380755
node,11985042681,Sunrise Hotel Lodge,guest_house,Not Available,Not Available,Not Available,Not Available,Not Available,Not Available,Not Available,Not Available,Chitwan,27.6684875,84.4381124
node,11985045429,Dipjyoti Guest House,guest_house,Not Available,Not Available,Not Available,Not Available,Not Available,Not Available,Not Available,Not Available,Chitwan,27.6699232,84.4382616
node,11985099912,Nirvaya Guest House,guest_house,Not Available,Not Available,Not Available,Not Available,Not Available,Not Available,Not Available,Not Available,Chitwan,27.6802616,84.4395735
node,11985120610,Ashish Guest House,guest_house,Not Available,Not Available,Not Available,Not Available,Not Available,Not Available,Not Available,Not Available,Chitwan,27.6799831,84.4395259
node,11993590765,Royal Rest House,guest_house,Not Available,Not Available,Not Available,Not Available,Not Available,Not Available,Not Available,Not Available,Chitwan,27.6965955,84.420847
node,11993600861,New Siddhi Baba Guest House,guest_house,Not Available,Not Available,Not Available,Not Available,Not Available,Not Available,Not Available,Not Available,Chitwan,27.6953807,84.4218079
node,11993605932,Lumbini Guest House,guest_house,Not Available,Not Available,Not Available,Not Available,Not Available,Not Available,Not Available,Not Available,Chitwan,27.6964209,84.4209657
node,11993619855,Himal Lodge & Restaurent,guest_house,Not Available,Not Available,Not Available,Not Available,Not Available,Not Available,Not Available,Not Available,Chitwan,27.6959899,84.4212614
node,11994651236,New Hotel Jhamkavet Restaurant & Guest House,guest_house,Not Available,Not Available,Not Available,Not Available,Not Available,Not Available,Not Available,Not Available,Chitwan,27.6928817,84.4218944
node,11994786827,Hotel New Model Lodge,guest_house,Not Available,Not Available,Not Available,Not Available,Not Available,Not Available,Not Available,Not Available,Chitwan,27.6855493,84.4292946
node,12293450601,Jungle World Resort,hotel,Not Available,Not Available,Not Available,Not Available,Not Available,Not Available,Not Available,Not Available,Chitwan,27.5829039,84.4894344
node,12586250201,Garden of Dreams,hotel,Not Available,https://hotel-garden-of-dreams.com/,+977 984-5049155,Not Available,Not Available,Not Available,Not Available,Not Available,Chitwan,27.5771697,84.5040058
node,12721221636,Srishti Srijana Hotel,hotel,Not Available,Not Available,Not Available,Not Available,Not Available,Not Available,Not Available,Not Available,Chitwan,27.6973279,84.4209699
node,12976854700,Swamp with rhinos,attraction,Not Available,Not Available,Not Available,Not Available,Not Available,Not Available,Not Available,Not Available,Chitwan,27.5676425,84.2184429
node,13271949348,Hotel Siraichuli,hotel,Not Available,Not Available,Not Available,Not Available,Not Available,Not Available,Not Available,Not Available,Chitwan,27.6882829,84.4257487
node,13806251983,Bhateri Tree House,viewpoint,Not Available,Not Available,Not Available,Not Available,Not Available,Not Available,Not Available,Not Available,Chitwan,27.7488198,84.4782637
way,119494133,Central Palms Hotel,hotel,Not Available,https://centralpalms-hotel.com.np/,Not Available,Not Available,Not Available,Not Available,Not Available,Not Available,Chitwan,27.691898097753064,84.41406848412578
way,186081442,Landmark Narayani,hotel,Not Available,Not Available,Not Available,Not Available,Not Available,Not Available,Not Available,Not Available,Chitwan,27.688326438565404,84.42758182225674
way,326904746,Bharatpur Garden Resort,hotel,Not Available,Not Available,Not Available,Not Available,Not Available,Not Available,Not Available,Not Available,Chitwan,27.68714139853515,84.42763836598354
way,327288911,Kimudini Girls Homes,hostel,Not Available,Not Available,056-521804; 9855059879; 9845195908,Not Available,Not Available,Not Available,Not Available,Not Available,Chitwan,27.685138884174624,84.42796523163834
way,327751742,Hotel Image,hotel,Not Available,Not Available,Not Available,Not Available,Not Available,Not Available,Not Available,Rajendra Piya,Chitwan,27.703028354582656,84.43091493731411
way,327753208,Hotel Satanchuli In,hotel,Not Available,Not Available,Not Available,Not Available,Not Available,Not Available,Not Available,Not Available,Chitwan,27.703193528068105,84.43118018485575
way,327963511,Island Jungle Resort,hotel,Not Available,Not Available,Not Available,Not Available,Not Available,Not Available,Not Available,Not Available,Chitwan,27.688213548201947,84.42927384248722
way,328098013,Vivanta Hotel,hotel,Not Available,Not Available,Not Available,Not Available,Not Available,Not Available,Not Available,Not Available,Chitwan,27.686641569038827,84.42841904482835
way,328336219,kafle hotel,hotel,Not Available,Not Available,Not Available,Not Available,Not Available,Not Available,Not Available,Not Available,Chitwan,27.703836051445805,84.43166020699482
way,338425689,picnic spot,picnic_site,Not Available,Not Available,Not Available,Not Available,Not Available,Not Available,Not Available,Not Available,Chitwan,27.69043546256576,84.48313417979945
way,342960884,Chautari Garden Resort,hotel,Not Available,Not Available,Not Available,Not Available,Not Available,Not Available,Not Available,Not Available,Chitwan,27.582686473828783,84.48995291042296
way,343643539,Nikunj Safari Guest House Sauraha,hotel,Not Available,https://www.google.com/search?gs_ssp=eJzj4tVP1zc0zDMvzk4xKY83YLRSNagwtrQ0SU0zS0oxsjAxMks2tjKoMEk2SrFINrRMTkxJtDQ1NfSSzMvMLs3LUihOTEssylRIL00tLlHIyC8tTgUAwPAZKQ&q=nikunj+safari+guest+house&oq=niku&gs_lcrp=EgZjaHJvbWUqEwgBEC4YrwEYxwEYgAQYmAUYmQUyDggAEEUYORh,+9779845155749,peaceful.cottage0@gmail.com,Not Available,Not Available,Not Available,Not Available,Chitwan,27.577196827359334,84.49948910090582
way,343742439,Samikshya,hotel,Not Available,Not Available,Not Available,Not Available,Not Available,Not Available,Not Available,Not Available,Chitwan,27.66870295,84.43452365
way,369839863,Kasara Chitwan,resort,Not Available,https://kasararesort.com/,Not Available,info@kasararesort.com,Not Available,Not Available,Not Available,Kasara,Chitwan,27.563547790570585,84.34241529895854
way,520209690,Riverside Hotel and Lodge,hotel,Not Available,Not Available,Not Available,Not Available,Not Available,Not Available,Not Available,Not Available,Chitwan,27.585901075520987,84.55640004817496
way,779098725,Jungle Villa Resort,hotel,Not Available,https://junglevillaresort.com/,Not Available,sales@junglevillaresort.com; info@junglevillaresort.com,Not Available,Not Available,Not Available,Not Available,Chitwan,27.559440377634,84.33801879029438
way,835072695,SOS Youth Facility Bharatpur ( Girls Hostel),hostel,Not Available,Not Available,Not Available,Not Available,Not Available,Not Available,Not Available,Not Available,Chitwan,27.654673026529263,84.43037821193082
way,906776145,Hotel Bharatpur Town Residency,hotel,Not Available,https://bharatpurtownresidency.com.np/,056-590879/590429,bharatpurtownresidency123@gmail.com,Not Available,Not Available,Not Available,Not Available,Chitwan,27.681107707884173,84.44034299361617
way,1018989857,PG girls hostel,hostel,Not Available,Not Available,Not Available,Not Available,Not Available,Not Available,Not Available,Not Available,Chitwan,27.64934819487097,84.34719430195703
way,1020723508,Smlect Girls Hostel,hostel,Not Available,Not Available,Not Available,Not Available,Not Available,Not Available,Not Available,Not Available,Chitwan,27.65008058204264,84.34839048866885
way,1038135052,Global Hotel,hotel,Not Available,Not Available,Not Available,Not Available,Not Available,Not Available,Not Available,Not Available,Chitwan,27.68208657157662,84.43137559476791
way,1096508794,Unique Wild Resort,hotel,Not Available,Not Available,Not Available,Not Available,Not Available,Not Available,Not Available,Not Available,Chitwan,27.577908730453945,84.49870907842764
way,1157732522,Hermitage Hotel,hotel,Not Available,Not Available,Not Available,Not Available,Not Available,Not Available,Not Available,Not Available,Chitwan,27.580644343178484,84.49164368988352
way,1384654823,Green Park Ressort,hotel,Not Available,Not Available,Not Available,Not Available,Not Available,Not Available,Not Available,Not Available,Chitwan,27.59107830297499,84.48516000711554
way,1411769540,Kings Jungle Safari & Culture Home Stay,guest_house,Not Available,https://maps.app.goo.gl/aNEeLbD4VUpL2ims5,+9779869046343,Not Available,Not Available,Not Available,Not Available,Not Available,Chitwan,27.569664650000004,84.23424935
node,1046594367,Manaslu Checkpoint,information,Not Available,Not Available,Not Available,Not Available,Not Available,Not Available,Not Available,Not Available,Gorkha,28.3514273,84.8957226
node,1046603926,Tsum Valley or Larke Pass,information,Not Available,Not Available,Not Available,Not Available,Not Available,Not Available,Not Available,Not Available,Gorkha,28.4322172,84.897521
node,1046605306,Yuru Khola,camp_site,Not Available,Not Available,Not Available,Not Available,Not Available,Not Available,Not Available,Not Available,Gorkha,28.3273346,84.9078374
node,1330352604,Dhuni Pati,museum,Not Available,Not Available,Not Available,Not Available,Not Available,Not Available,Not Available,Not Available,Gorkha,28.0042154,84.629058
node,1330353540,Tallo Kot,attraction,Not Available,Not Available,Not Available,Not Available,Not Available,Not Available,Not Available,Not Available,Gorkha,28.0050334,84.6250791
node,1330353593,Upallo Kot,attraction,Not Available,Not Available,Not Available,Not Available,Not Available,Not Available,Not Available,Not Available,Gorkha,28.0041951,84.6343917
node,1461362183,Hotel Gorkha Bisauni,hotel,Not Available,Not Available,Not Available,Not Available,Not Available,Not Available,Not Available,Not Available,Gorkha,27.9959634,84.6251035
node,1781603403,Rupina-South Woodcamp,camp_site,Not Available,Not Available,Not Available,Not Available,Not Available,Not Available,Not Available,Not Available,Gorkha,28.325002,84.7312653
node,1781613791,Rupina-North,camp_site,Not Available,Not Available,Not Available,Not Available,Not Available,Not Available,Not Available,Not Available,Gorkha,28.3791224,84.722165
node,1781649659,Barpak,camp_site,Not Available,Not Available,Not Available,Not Available,Not Available,Not Available,Not Available,Not Available,Gorkha,28.2028314,84.7466039
node,1781649696,Rupina-South,camp_site,Not Available,Not Available,Not Available,Not Available,Not Available,Not Available,Not Available,Not Available,Gorkha,28.3468569,84.7317801
node,1782646677,Mount Manaslu Lodge,guest_house,Not Available,Not Available,Not Available,Not Available,Not Available,Not Available,Not Available,Not Available,Gorkha,28.5874482,84.6415296
node,4208482893,bakenswara,viewpoint,Not Available,Not Available,Not Available,Not Available,Not Available,Not Available,Not Available,Not Available,Gorkha,27.9604455,84.6751759
node,4208543589,lakhedanda,attraction,Not Available,Not Available,Not Available,Not Available,Not Available,Not Available,Not Available,Not Available,Gorkha,27.959707,84.6746831
node,4305384192,lakhan thapa cave,attraction,Not Available,Not Available,Not Available,Not Available,Not Available,Not Available,Not Available,Not Available,Gorkha,27.9469724,84.6770639
node,4305400491,Pokhari Bhatta Hotel,hotel,Not Available,Not Available,Not Available,Not Available,Not Available,Not Available,Not Available,Not Available,Gorkha,28.111055,84.6663328
node,4305409889,pokharidanda,viewpoint,Not Available,Not Available,Not Available,Not Available,Not Available,Not Available,Not Available,Not Available,Gorkha,27.9621011,84.6757155
node,4358681989,Bamboo Cottage,hotel,Not Available,Not Available,+977 64 421373,Not Available,Not Available,Not Available,Not Available,Gopal Gurung CB,Gorkha,28.0036307,84.6116545
node,4520193191,Hill Side Travel Hotel & Lodge,hotel,Not Available,Not Available,Not Available,Not Available,Not Available,Not Available,Not Available,Not Available,Gorkha,27.9030026,84.5844056
node,4659784093,Gorkha Beach Resort,camp_site,Not Available,Not Available,Not Available,Not Available,Not Available,Not Available,Not Available,Not Available,Gorkha,27.8610526,84.6417427
node,4796444522,Adrenaline Rush Rafting Camp,camp_site,Not Available,Not Available,Not Available,Not Available,Not Available,Not Available,Not Available,Not Available,Gorkha,27.8669507,84.6354059
node,4800828231,Borlang Dhawa kotwali Hotel and Lodge,hotel,Not Available,Not Available,Not Available,Not Available,Not Available,Not Available,Not Available,Not Available,Gorkha,27.9941638,84.6289258
node,4836644366,Kyimulung Hotel & Lodge,hotel,Not Available,Not Available,+977 9766077900,Not Available,Not Available,Not Available,Not Available,Not Available,Gorkha,28.50616,85.0752132
node,4836673129,Lapu Guesthouse,hotel,Not Available,Not Available,Not Available,Not Available,Not Available,Not Available,Not Available,Not Available,Gorkha,28.1784457,84.8788129
node,4836749772,Sangri La Hotel,hotel,Not Available,Not Available,Not Available,Not Available,Not Available,Not Available,Not Available,Not Available,Gorkha,28.2546571,84.883449
node,4843051611,Tsum Jhambala Hotel & Restaurant,hotel,Not Available,Not Available,Not Available,Not Available,Not Available,Not Available,Not Available,Not Available,Gorkha,28.473359,84.9713687
node,4845077898,Third Step Hotel,hotel,Not Available,Not Available,Not Available,Not Available,Not Available,Not Available,Not Available,Not Available,Gorkha,28.0465567,84.8132086
node,4845077899,ABC Guesthouse,hotel,Not Available,Not Available,Not Available,Not Available,Not Available,Not Available,Not Available,Not Available,Gorkha,28.1337902,84.8543482
node,4845077900,Budhi Gandaki Valley Gusethouse,hotel,Not Available,Not Available,Not Available,Not Available,Not Available,Not Available,Not Available,Not Available,Gorkha,28.2957602,84.9050958
node,4845077902,Yaru Guesthouse,hotel,Not Available,Not Available,Not Available,Not Available,Not Available,Not Available,Not Available,Not Available,Gorkha,28.3254349,84.9080588
node,4845090004,Namasté Guesthouse,hotel,Not Available,Not Available,Not Available,Not Available,Not Available,Not Available,Not Available,Not Available,Gorkha,28.5741814,84.671972
node,4845090005,Yetti,hotel,Not Available,Not Available,Not Available,Not Available,Not Available,Not Available,Not Available,Not Available,Gorkha,28.5741068,84.6714606
node,4845090006,The Happiness Guesthouse,hotel,Not Available,Not Available,Not Available,Not Available,Not Available,Not Available,Not Available,Not Available,Gorkha,28.574161,84.6709745
node,5002810381,Hosanna,hotel,Not Available,Not Available,Not Available,Not Available,Not Available,Not Available,Not Available,Not Available,Gorkha,28.326232,84.907904
node,5002839285,New Tashi Deleg,hotel,Not Available,Not Available,Not Available,Not Available,Not Available,Not Available,Not Available,Not Available,Gorkha,28.6504397,84.6331015
node,5002839287,Cheese Karsay Lodge,hostel,Not Available,Not Available,Not Available,Not Available,Not Available,Not Available,Not Available,Not Available,Gorkha,28.649565,84.6332089
node,5170472422,Hotel Chumvally Restaurant and Lodge,guest_house,Not Available,Not Available,+9746037107,Not Available,Not Available,Not Available,Not Available,Not Available,Gorkha,28.2289355,84.8737302
node,5255108622,Manaslu Base Camp,camp_site,Not Available,Not Available,Not Available,Not Available,Not Available,Not Available,Not Available,Not Available,Gorkha,28.5940526,84.6001815
node,5545190983,Bhimsen Park,theme_park,Not Available,Not Available,Not Available,Not Available,Not Available,Not Available,Not Available,Not Available,Gorkha,28.0159467,84.6453962
node,6005096387,Green Valley,guest_house,Not Available,Not Available,064691125,Not Available,Not Available,Not Available,Not Available,Not Available,Gorkha,28.1340854,84.8543997
node,6006369991,Zambala Hotel,guest_house,Not Available,Not Available,Not Available,Not Available,Not Available,Not Available,Not Available,Not Available,Gorkha,28.6591153,84.5841924
node,6006370340,Solukhumbu Guest House,guest_house,Not Available,Not Available,Not Available,Not Available,Not Available,Not Available,Not Available,Not Available,Gorkha,28.5200221,84.8443591
node,6028896227,Nyak or Pewa,information,Not Available,Not Available,Not Available,Not Available,Not Available,Not Available,Not Available,Not Available,Gorkha,28.4372574,84.8994228
node,7021067925,Hill-top viewpoint towards Manaslu,viewpoint,Not Available,Not Available,Not Available,Not Available,Not Available,Not Available,Not Available,Not Available,Gorkha,28.5735834,84.6947678
node,9054229743,Chulevir Viewpoint,viewpoint,Not Available,Not Available,Not Available,Not Available,Not Available,Not Available,Not Available,Not Available,Gorkha,27.9333055,84.6680365
node,9714462517,Himal chuli hotel,hotel,Not Available,Not Available,Not Available,Not Available,Not Available,Not Available,Not Available,Not Available,Gorkha,28.5604696,84.7459716
node,9714463419,Norgyun Hotel,hotel,Not Available,Not Available,Not Available,Not Available,Not Available,Not Available,Not Available,Not Available,Gorkha,28.5694079,84.7194607
node,9714464117,Hamra Khaja Ghar Hotel,hotel,Not Available,Not Available,Not Available,Not Available,Not Available,Not Available,Not Available,Not Available,Gorkha,28.5700384,84.7149511
node,9714464917,Lama Guest House,hotel,Not Available,Not Available,Not Available,Not Available,Not Available,Not Available,Not Available,Not Available,Gorkha,28.5746899,84.700497
node,9714465017,Lho Norbu Hotel,hotel,Not Available,Not Available,Not Available,Not Available,Not Available,Not Available,Not Available,Not Available,Gorkha,28.5745767,84.6996189
node,10050460499,18 Saya Khola Family Guest House,guest_house,Not Available,Not Available,Not Available,Not Available,Not Available,Not Available,Not Available,Not Available,Gorkha,28.294927,84.9037964
node,10050466933,Jagat Guest House,guest_house,Not Available,Not Available,Not Available,Not Available,Not Available,Not Available,Not Available,Not Available,Gorkha,28.3510358,84.8957097
node,10050471151,Thulodhunga Hotel and Lodge,guest_house,Not Available,Not Available,Not Available,Not Available,Not Available,Not Available,Not Available,Not Available,Gorkha,28.3138246,84.9049443
node,10050475488,Rubinala Inn,guest_house,Not Available,Not Available,9862380521,Not Available,Not Available,Not Available,Not Available,Not Available,Gorkha,28.3511542,84.8957441
node,10137753780,Tashi Delek Lobsang Lodge & Restaurant,guest_house,Not Available,Not Available,Not Available,Not Available,Not Available,Not Available,Not Available,Not Available,Gorkha,28.4733213,84.9623628
node,10137784247,Buddhi Gandaki Homestay and Teahouse,guest_house,Not Available,Not Available,Not Available,Not Available,Not Available,Not Available,Not Available,Not Available,Gorkha,28.5683787,84.7255565
node,10154437097,Mt. Manaslu View,viewpoint,Not Available,Not Available,Not Available,Not Available,Not Available,Not Available,Not Available,Not Available,Gorkha,28.6560293,84.5986963
node,10154438466,Larke Pass Viewpoint,viewpoint,Not Available,Not Available,Not Available,Not Available,Not Available,Not Available,Not Available,Not Available,Gorkha,28.6641502,84.5798576
node,10154439643,Small Hut,wilderness_hut,Not Available,Not Available,Not Available,Not Available,Not Available,Not Available,Not Available,Not Available,Gorkha,28.6573099,84.6101835
node,10244606299,Hotel SnowLion,guest_house,Not Available,Not Available,Not Available,Not Available,Not Available,Not Available,Not Available,Not Available,Gorkha,28.6506963,84.6330686
node,10244606306,Mongolian cottage,guest_house,Not Available,Not Available,Not Available,Not Available,Not Available,Not Available,Not Available,Not Available,Gorkha,28.3518358,84.8956028
node,10244720019,An imposing huge fold,attraction,An imposing huge fold - which makes up the whole mountain .... the Himalayas are a folded mountain range,Not Available,Not Available,Not Available,Not Available,Not Available,Not Available,Not Available,Gorkha,28.6977682,84.6281207
node,11072634978,Renzam Ganesh Himal Guesthouse,guest_house,Not Available,Not Available,Not Available,Not Available,Not Available,Not Available,Not Available,Not Available,Gorkha,28.4743521,85.0090518
node,11809087570,The River View Cottage,guest_house,Not Available,Not Available,Not Available,Not Available,Not Available,Not Available,Not Available,Not Available,Gorkha,28.545341,84.7690915
node,11809087571,Hotel Blue Sky,hotel,Not Available,Not Available,Not Available,Not Available,Not Available,Not Available,Not Available,Not Available,Gorkha,28.5739376,84.7024299
node,11809352470,Hotel Dream Home,guest_house,Not Available,Not Available,+977 984-6056072,Not Available,Not Available,Not Available,Not Available,Not Available,Gorkha,28.0032206,84.6185832
node,11832566687,Organic Apple Farme Guest House,guest_house,Not Available,Not Available,+977 985-1158088,Not Available,Not Available,Not Available,Not Available,Not Available,Gorkha,28.5384835,84.7789527
node,11832570676,Namrung Tibetan Guest House,guest_house,Not Available,Not Available,+977 986-9859130,Not Available,Not Available,Not Available,Not Available,Not Available,Gorkha,28.5451466,84.7696533
node,11832573569,Kagni Lodge,guest_house,Not Available,Not Available,9860196773,Not Available,Not Available,Not Available,Not Available,Not Available,Gorkha,28.539836,85.105874
node,11832573669,Mandala Hotel,hotel,Not Available,Not Available,+977 986-9641216,Not Available,Not Available,Not Available,Not Available,Not Available,Gorkha,28.5882111,84.6412041
node,11873713169,Namrung Guest House,hotel,Not Available,Not Available,9844369130,Not Available,Not Available,Not Available,Not Available,Not Available,Gorkha,28.544997,84.7692937
node,11876485469,Manaslu Bamboo Hotel,hotel,Not Available,Not Available,9746444488,animeluffy924@gmail.com,Sa 09:00-18:00,Not Available,Not Available,Not Available,Gorkha,28.4799455,84.8668401
node,13235999802,"Dharche Namaste Hotel, Restaurant &  Cofee Shop",hotel,Not Available,Not Available,Not Available,Not Available,Not Available,Not Available,Not Available,Not Available,Gorkha,28.2178089,84.8029898
node,13235999803,"Chorten, Stupa",attraction,Not Available,Not Available,Not Available,Not Available,Not Available,Not Available,Not Available,Not Available,Gorkha,28.4745953,85.0085929
node,13235999902,Hotel Motherland Tsum,hotel,Not Available,Not Available,Not Available,Not Available,Not Available,Not Available,Not Available,Not Available,Gorkha,28.4423412,84.9181645
node,13236000201,River View Guest House,hotel,Not Available,Not Available,Not Available,Not Available,Not Available,Not Available,Not Available,Not Available,Gorkha,28.2544335,84.8833142
node,13236000202,Tashi Delek Lobshang Lodge & Restaurant,hotel,Not Available,Not Available,Not Available,Not Available,Not Available,Not Available,Not Available,Not Available,Gorkha,28.442182,84.9181866
node,13236000205,Chameri Himal Guesthouse,hotel,Not Available,Not Available,Not Available,Not Available,Not Available,Not Available,Not Available,Not Available,Gorkha,28.4748167,85.0090584
node,13236000206,Trekker's Home,hotel,Not Available,Not Available,Not Available,Not Available,Not Available,Not Available,Not Available,Not Available,Gorkha,28.4896316,85.0410733
node,13245320102,Gho village,attraction,Not Available,Not Available,Not Available,Not Available,Not Available,Not Available,Not Available,Not Available,Gorkha,28.4779997,85.01258
node,13245331601,Cani Gate,attraction,Not Available,Not Available,Not Available,Not Available,Not Available,Not Available,Not Available,Not Available,Gorkha,28.4894455,85.0412923
node,13247640103,Shangrila Home,hotel,Not Available,Not Available,Not Available,Not Available,Not Available,Not Available,Not Available,Not Available,Gorkha,28.4801761,84.8669257
node,13247640104,Bihi Phedi 2010 m,attraction,Not Available,Not Available,Not Available,Not Available,Not Available,Not Available,Not Available,Not Available,Gorkha,28.49997,84.8668106
node,13247641401,Karma Hotel,hotel,Not Available,Not Available,Not Available,Not Available,Not Available,Not Available,Not Available,Not Available,Gorkha,28.4945366,84.8680715
node,13247641402,Wongrung Khola 2100 m,attraction,Not Available,Not Available,Not Available,Not Available,Not Available,Not Available,Not Available,Not Available,Gorkha,28.496892,84.8697993
node,13248953401,Gampul 1550 m,attraction,Not Available,Not Available,Not Available,Not Available,Not Available,Not Available,Not Available,Not Available,Gorkha,28.4368172,84.9004738
node,13251186301,Gapkaltal Guest House,hotel,Not Available,Not Available,Not Available,Not Available,Not Available,Not Available,Not Available,Not Available,Gorkha,28.509641,84.8574731
node,13251186401,Bhijam 2005 m,attraction,Not Available,Not Available,Not Available,Not Available,Not Available,Not Available,Not Available,Not Available,Gorkha,28.5098255,84.857388
node,13251186501,Départ sentier,attraction,Not Available,Not Available,Not Available,Not Available,Not Available,Not Available,Not Available,Not Available,Gorkha,28.5138183,84.8548282
node,13251186502,Mani - Mur à prière,attraction,Not Available,Not Available,Not Available,Not Available,Not Available,Not Available,Not Available,Not Available,Gorkha,28.5336659,84.806875
node,13251186601,Pandrung 2080 m,attraction,Not Available,Not Available,Not Available,Not Available,Not Available,Not Available,Not Available,Not Available,Gorkha,28.5150311,84.852574
node,13251186602,Gap 2100 m,attraction,Not Available,Not Available,Not Available,Not Available,Not Available,Not Available,Not Available,Not Available,Gorkha,28.5299215,84.8315495
node,13251186603,Gap 2125 m,attraction,Not Available,Not Available,Not Available,Not Available,Not Available,Not Available,Not Available,Not Available,Gorkha,28.5304897,84.8264271
node,13251186604,Lunga Chhyuda 2375 m,attraction,Not Available,Not Available,Not Available,Not Available,Not Available,Not Available,Not Available,Not Available,Gorkha,28.5334445,84.7973478
node,13251186702,Budhi Gandaki Hotel,hotel,Not Available,Not Available,Not Available,Not Available,Not Available,Not Available,Not Available,Not Available,Gorkha,28.5313509,84.8246595
node,13251186703,Suksum,attraction,Not Available,Not Available,Not Available,Not Available,Not Available,Not Available,Not Available,Not Available,Gorkha,28.5346542,84.7875163
node,13251186704,Hotel Sherpa Lodge & Café - Magasin,hotel,Not Available,Not Available,Not Available,Not Available,Not Available,Not Available,Not Available,Not Available,Gorkha,28.5617142,84.7417556
node,13251186705,Namsang Khola 2850 m,attraction,Not Available,Not Available,Not Available,Not Available,Not Available,Not Available,Not Available,Not Available,Gorkha,28.5594502,84.7316407
node,13251186706,Shyo 2960 m,attraction,Not Available,Not Available,Not Available,Not Available,Not Available,Not Available,Not Available,Not Available,Gorkha,28.5671811,84.7282508
node,13251186707,Chorten Gate,attraction,Not Available,Not Available,Not Available,Not Available,Not Available,Not Available,Not Available,Not Available,Gorkha,28.5694543,84.7232692
node,13251186708,Zambala Manaslu Sho Guest House,hotel,Not Available,Not Available,Not Available,Not Available,Not Available,Not Available,Not Available,Not Available,Gorkha,28.5699075,84.7151462
node,13251186801,Bur 2073 m + passerelle,attraction,Not Available,Not Available,Not Available,Not Available,Not Available,Not Available,Not Available,Not Available,Gorkha,28.5207394,84.8442756
node,13251186803,Chorten,attraction,Not Available,Not Available,Not Available,Not Available,Not Available,Not Available,Not Available,Not Available,Gorkha,28.5312627,84.8200015
node,13251186901,Cascade,attraction,Not Available,Not Available,Not Available,Not Available,Not Available,Not Available,Not Available,Not Available,Gorkha,28.5294749,84.837387
node,13251187001,Gap 2105 m,attraction,Not Available,Not Available,Not Available,Not Available,Not Available,Not Available,Not Available,Not Available,Gorkha,28.5284699,84.835438
node,13251187002,Porte,attraction,Not Available,Not Available,Not Available,Not Available,Not Available,Not Available,Not Available,Not Available,Gorkha,28.5293204,84.8310744
node,13251187201,Ghap Cottage Guest House,hotel,Not Available,Not Available,Not Available,Not Available,Not Available,Not Available,Not Available,Not Available,Gorkha,28.5311319,84.8223875
node,13251187203,Suksum 2265 m + sentier,attraction,Not Available,Not Available,Not Available,Not Available,Not Available,Not Available,Not Available,Not Available,Gorkha,28.5344544,84.7871599
node,13251187204,Lhaptang Guest House,hotel,Not Available,Not Available,Not Available,Not Available,Not Available,Not Available,Not Available,Not Available,Gorkha,28.5568505,84.7534984
node,13251187205,Gate,attraction,Not Available,Not Available,Not Available,Not Available,Not Available,Not Available,Not Available,Not Available,Gorkha,28.5616231,84.7421584
node,13251187401,Gapshya 2150 m,attraction,Not Available,Not Available,Not Available,Not Available,Not Available,Not Available,Not Available,Not Available,Gorkha,28.5324741,84.8140647
node,13251187402,Hotel Kyimolung,hotel,Not Available,Not Available,Not Available,Not Available,Not Available,Not Available,Not Available,Not Available,Gorkha,28.5325999,84.8137467
node,13251187501,Mani Wall,attraction,Not Available,Not Available,Not Available,Not Available,Not Available,Not Available,Not Available,Not Available,Gorkha,28.5661492,84.7302153
node,13251670203,Shyala 3500 m,attraction,Not Available,Not Available,Not Available,Not Available,Not Available,Not Available,Not Available,Not Available,Gorkha,28.5740759,84.6718989
node,13251733802,Shorten Gate,attraction,Not Available,Not Available,Not Available,Not Available,Not Available,Not Available,Not Available,Not Available,Gorkha,28.5733672,84.7031359
node,13253703901,Pungen Gumba 4040 m,attraction,Not Available,Not Available,Not Available,Not Available,Not Available,Not Available,Not Available,Not Available,Gorkha,28.5515149,84.6278583
node,13253704401,Panneau Shyala - Pungen Gumba,attraction,Not Available,Not Available,Not Available,Not Available,Not Available,Not Available,Not Available,Not Available,Gorkha,28.5658868,84.6558715
node,13266294905,Altitude 4300 m,attraction,Not Available,Not Available,Not Available,Not Available,Not Available,Not Available,Not Available,Not Available,Gorkha,28.6561253,84.6004715
node,13266295102,Altitude 4200 m,attraction,Not Available,Not Available,Not Available,Not Available,Not Available,Not Available,Not Available,Not Available,Gorkha,28.6573319,84.6102463
node,13266295202,Altitude  4400 m,attraction,Not Available,Not Available,Not Available,Not Available,Not Available,Not Available,Not Available,Not Available,Gorkha,28.6569678,84.5953595
node,13270055301,Gap Cottage,guest_house,Not Available,Not Available,Not Available,Not Available,Not Available,Not Available,Not Available,Not Available,Gorkha,28.5311045,84.8223681
node,13309989608,Namgyal Guest House,hotel,Not Available,Not Available,Not Available,Not Available,Not Available,Not Available,Not Available,Not Available,Gorkha,28.4792456,84.8669188
node,13310336132,Akley Bhatti Hotel & Lodge,guest_house,Not Available,Not Available,Not Available,Not Available,Not Available,Not Available,Not Available,Not Available,Gorkha,28.4145522,84.8943785
node,13312831096,Bur Guest House,guest_house,Not Available,Not Available,Not Available,Not Available,Not Available,Not Available,Not Available,Not Available,Gorkha,28.5195471,84.8445577
node,13315897821,Tashi Delek Hotel & Lodge,guest_house,Not Available,Not Available,Not Available,Not Available,Not Available,Not Available,Not Available,Not Available,Gorkha,28.5739189,84.7011774
node,13321709149,Peace Heaven Hotel & Lodge,guest_house,Not Available,Not Available,Not Available,Not Available,Not Available,Not Available,Not Available,Not Available,Gorkha,28.5866366,84.6415458
node,13321723284,Hotel Base Camp,guest_house,Not Available,Not Available,Not Available,Not Available,Not Available,Not Available,Not Available,Not Available,Gorkha,28.5873975,84.6412623
node,13321725836,Boddhisattva Hotel & Lodge,guest_house,Not Available,Not Available,Not Available,Not Available,Not Available,Not Available,Not Available,Not Available,Gorkha,28.5875722,84.6414875
node,13321728308,Joyful Hotel,guest_house,Not Available,Not Available,Not Available,Not Available,Not Available,Not Available,Not Available,Not Available,Gorkha,28.5881455,84.6409576
node,13321729287,Samsgaun Hotel & Lodge,guest_house,Not Available,Not Available,Not Available,Not Available,Not Available,Not Available,Not Available,Not Available,Gorkha,28.5864847,84.641666
node,13321729406,Tashi Yangchen Hotel & Lodge,guest_house,Not Available,Not Available,Not Available,Not Available,Not Available,Not Available,Not Available,Not Available,Gorkha,28.5867963,84.6415847
node,13366311201,Tsum Valey Pangpoche Guest House,guest_house,Not Available,https://share.google/Rjth92a1iQZBsFWz6,9761111425,northaelama333@gmail.com,24/7,Not Available,Not Available,Not Available,Gorkha,28.5075917,85.0777729
node,13392841803,Ekelebhatti Long Bridge Guesthouse & Restaurant,hotel,Not Available,Not Available,Not Available,Not Available,Not Available,Not Available,Not Available,Not Available,Gorkha,28.412611,84.8937077
node,13870910702,Viewpoint,viewpoint,Not Available,Not Available,Not Available,Not Available,Not Available,Not Available,Not Available,Not Available,Gorkha,28.5218517,84.8400677
node,13870911202,"Kern (end of grass, start of stones, 5042 m)",viewpoint,Not Available,Not Available,Not Available,Not Available,Not Available,Not Available,Not Available,Not Available,Gorkha,28.6729142,84.5776719
node,13870911402,Kern (4967 m),viewpoint,Not Available,Not Available,Not Available,Not Available,Not Available,Not Available,Not Available,Not Available,Gorkha,28.6697955,84.5778886
relation,4839941,Tallo Durbar Prithivi Museum,museum,Not Available,Not Available,Not Available,Not Available,Not Available,Not Available,Not Available,Not Available,Gorkha,27.998767883170657,84.62436076878771
way,243517114,Pace Hotel,wilderness_hut,basic shelter w/o boarding,Not Available,Not Available,Not Available,Not Available,Not Available,Not Available,Not Available,Gorkha,28.65937545,84.58391580000001
way,243517116,Peace Lodge,guest_house,Not Available,Not Available,Not Available,Not Available,Not Available,Not Available,Not Available,Not Available,Gorkha,28.659317343613694,84.58402887917501
way,329054383,Chum Gate Way Hotel & Lodge,hotel,Not Available,Not Available,Not Available,Not Available,Not Available,Not Available,Not Available,Not Available,Gorkha,28.4419767,84.91850990000003
way,340544619,Shanti Guesthouse,guest_house,Not Available,Not Available,Not Available,Not Available,Not Available,Not Available,Not Available,Not Available,Gorkha,28.573926170858805,84.67136633842811
way,340620645,Shrinki Guest House,guest_house,Not Available,Not Available,Not Available,Not Available,Not Available,Not Available,Not Available,Not Available,Gorkha,28.359714200000003,84.8886446
way,340821462,Diamond Hotel,guest_house,Not Available,Not Available,Not Available,Not Available,Not Available,Not Available,Not Available,Not Available,Gorkha,28.09653036821372,84.83600253961627
way,341904696,Manaslu Hotel & Lodge,guest_house,Not Available,Not Available,Not Available,Not Available,Not Available,Not Available,Not Available,Not Available,Gorkha,28.22899030228916,84.8738639175291
way,342033541,Larke Hotel & Lodge,hostel,Not Available,Not Available,Not Available,Not Available,Not Available,Not Available,Not Available,Not Available,Gorkha,28.05172814716485,84.8162043706048
way,343240087,Hotel Laxmi,guest_house,Not Available,Not Available,Not Available,Not Available,Not Available,Not Available,Not Available,Not Available,Gorkha,28.177656711977413,84.8795071525324
way,343249830,Manaslu Guest House,guest_house,Not Available,Not Available,Not Available,Not Available,Not Available,Not Available,Not Available,Not Available,Gorkha,28.09664495041901,84.83592343330376
way,357373367,Hotel Green Valley,guest_house,Not Available,Not Available,Not Available,Not Available,Not Available,Not Available,Not Available,Not Available,Gorkha,28.134083550000003,84.85439995
way,547204811,Oreg,hotel,Not Available,Not Available,Not Available,Not Available,Not Available,Not Available,Not Available,Not Available,Gorkha,27.879309300000003,84.61230065
way,617657477,Chum Nubri Ekle Bhatti Chisopi Guest House,guest_house,Not Available,Not Available,Not Available,Not Available,Not Available,Not Available,Not Available,Not Available,Gorkha,28.409107450000008,84.89448115
way,617657478,Laprak Gurung Bamboo Cottage & Restaurant,guest_house,Not Available,Not Available,Not Available,Not Available,Not Available,Not Available,Not Available,Not Available,Gorkha,28.40900183014734,84.89449785290876
way,617669400,Royal Mountain Hotel & Lodge,guest_house,Not Available,Not Available,Not Available,Not Available,Not Available,Not Available,Not Available,Not Available,Gorkha,28.29523175542015,84.903956114163
way,617775748,New Chum Valley Guest House,hostel,Not Available,Not Available,Not Available,Not Available,Not Available,Not Available,Not Available,Not Available,Gorkha,28.13509833353183,84.85463302091523
way,638695001,New Pewa Guesthouse,guest_house,Not Available,Not Available,Not Available,Not Available,24/7,Not Available,Not Available,Not Available,Gorkha,28.46241300058149,84.88339486633463
way,638696405,Kham-Sangbo Hotel & Lodge,guest_house,Not Available,Not Available,Not Available,Not Available,Not Available,Not Available,Not Available,Not Available,Gorkha,28.4402487,84.90227945
way,638703791,Chhumbeli Tibetan Yak Hotel,guest_house,Not Available,Not Available,Not Available,Not Available,Not Available,Not Available,Not Available,Not Available,Gorkha,28.467853129638407,84.97350661103154
way,638731849,Chumling Guest House,guest_house,Not Available,Not Available,Not Available,Not Available,Not Available,Not Available,Not Available,Not Available,Gorkha,28.47293801639701,84.96221883221855
way,638745256,Milarepa Hotel & Lodge,guest_house,Not Available,Not Available,Not Available,Not Available,Not Available,Not Available,Not Available,Not Available,Gorkha,28.48979045010689,85.04357491675506
way,638767823,Nile Norling Guest House,guest_house,Not Available,Not Available,Not Available,Not Available,Not Available,Not Available,Not Available,Not Available,Gorkha,28.54350556261224,85.10537473364118
way,639927970,Majestic Manaslu Cottages & Garden,guest_house,Not Available,Not Available,Not Available,Not Available,Not Available,Not Available,Not Available,Not Available,Gorkha,28.574272,84.70116249999998
way,640023486,Norling,hotel,Guest House & Restaurant,http://Norlinghotel.6te.net,+977 9861992777,mingmarlama555@gmail.com,24/7,Not Available,Not Available,Mingmar lama,Gorkha,28.5872348469948,84.64108490773819
way,640367131,Yak Hotel,guest_house,Not Available,Not Available,Not Available,Not Available,Not Available,Not Available,Not Available,Not Available,Gorkha,28.650131074446502,84.63299963193413
way,640375146,Larke La Hotel & Lodge,guest_house,Not Available,Not Available,Not Available,Not Available,Not Available,Not Available,Not Available,Not Available,Gorkha,28.65862505,84.58452550000001
way,750982157,Tashi Delek Hotel,hotel,Not Available,Not Available,Not Available,Not Available,Not Available,Not Available,Not Available,Not Available,Gorkha,28.58558681833236,84.64276352382353
way,1155146023,Lunga chhyuda mit Sauna,guest_house,Not Available,Not Available,9846704222,Not Available,Not Available,Not Available,Not Available,Not Available,Gorkha,28.53328451969367,84.79700534547649
node,267667122,Rockland Hotel,hotel,Not Available,Not Available,061-461953,Not Available,Not Available,Not Available,Not Available,Not Available,Kaski,28.2113597,83.9631084
node,316985065,The Lakeside Retreat - Pokhara,hotel,Not Available,https://lsrpokhara.com/,"061-454226, 455949",info@lsrpokhara.com,Not Available,Not Available,Not Available,Not Available,Kaski,28.2043486,83.9662542
node,316995112,Indra Guest House,guest_house,Not Available,Not Available,Not Available,Not Available,Not Available,Not Available,Not Available,Not Available,Kaski,28.3490978,83.7421334
node,520698757,Sarangkot Viewpoint,viewpoint,Not Available,Not Available,Not Available,Not Available,Not Available,Q906285,en:Sarankot,Not Available,Kaski,28.2436947,83.9574975
node,520702266,Lonely View Lodge,guest_house,Not Available,Not Available,Not Available,Not Available,Not Available,Not Available,Not Available,Not Available,Kaski,28.218097,83.9592252
node,568497246,Boat for rent,attraction,Not Available,Not Available,Not Available,Not Available,Not Available,Not Available,Not Available,Not Available,Kaski,28.2034895,83.9626075
node,568542954,Hotel Landmark,hotel,Not Available,Not Available,Not Available,Not Available,Not Available,Not Available,Not Available,Not Available,Kaski,28.2078818,83.9575377
node,605254986,Hotel Green Land,hotel,Not Available,Not Available,Not Available,Not Available,Not Available,Not Available,Not Available,Not Available,Kaski,28.3006837,83.8487103
node,713296206,Phils Inn,guest_house,Not Available,phil.rinnet.de,Not Available,Not Available,Not Available,Not Available,Not Available,Not Available,Kaski,28.216607,83.9585057
node,763684019,Hotel Lake Diamond,hotel,Not Available,www.hotellakediamond.com,+977 61 642064;+977 9846048134,Not Available,Not Available,Not Available,Not Available,Not Available,Kaski,28.2103363,83.9598865
node,763689090,Eden Hotel,hotel,Not Available,Not Available,Not Available,Not Available,Not Available,Not Available,Not Available,Not Available,Kaski,28.2068464,83.9614103
node,973821261,New Friendly Home,guest_house,Not Available,Not Available,Not Available,Not Available,Not Available,Not Available,Not Available,Not Available,Kaski,28.2061619,83.9608862
node,973821299,Snow Hill Lodge,hotel,Not Available,Not Available,Not Available,Not Available,Not Available,Not Available,Not Available,Not Available,Kaski,28.2035185,83.9665202
node,973821301,Peace Eye Guest House,guest_house,Not Available,www.peaceeye.com.np,+977 61 461699;+977 61 462243,hotelpeaceeye@gmail.com,Not Available,Not Available,Not Available,Not Available,Kaski,28.2069931,83.9623749
node,977262750,New Annapurna Guesthouse,guest_house,Not Available,Not Available,Not Available,Not Available,Not Available,Not Available,Not Available,Not Available,Kaski,28.2037058,83.9674472
node,978322936,Snowland Hotel,hotel,Not Available,https://www.hotelsnowlandpokhara.com/,"+977-9856099999, 061-462384; 061-462572",Not Available,Not Available,Not Available,Not Available,Not Available,Kaski,28.2089262,83.9576381
node,978322938,Lake Vision Guesthouse,guest_house,Not Available,Not Available,Not Available,Not Available,Not Available,Not Available,Not Available,Not Available,Kaski,28.2195461,83.9586623
node,978322941,Shining Star Hotel,hotel,Not Available,Not Available,Not Available,Not Available,Not Available,Not Available,Not Available,Not Available,Kaski,28.2173093,83.9590916
node,978322957,Hotel Tropicana,hotel,Not Available,Not Available,061-462118,Not Available,Not Available,Not Available,Not Available,Not Available,Kaski,28.2171335,83.9590312
node,978322959,Mandap Hotel,hotel,Not Available,Not Available,Not Available,Not Available,Not Available,Not Available,Not Available,Not Available,Kaski,28.2169848,83.9589863
node,978322961,Be Happy Guesthouse,guest_house,Not Available,Not Available,Not Available,Not Available,Not Available,Not Available,Not Available,Not Available,Kaski,28.2167297,83.9589459
node,978322963,Laxmi Guesthouse,guest_house,Not Available,Not Available,Not Available,Not Available,24/7,Not Available,Not Available,Not Available,Kaski,28.2165841,83.9588238
node,978322978,Crown Hotel,hotel,Not Available,crownhotelpokhara.com,061-464821,Not Available,Not Available,Not Available,Not Available,Not Available,Kaski,28.2158708,83.958772
node,978322981,Plaza Annapurna Hotel,hotel,Not Available,Not Available,Not Available,Not Available,Not Available,Not Available,Not Available,Not Available,Kaski,28.2156626,83.9587271
node,978322982,Peace Plaza Hotel,hotel,Not Available,Not Available,Not Available,Not Available,Not Available,Not Available,Not Available,Not Available,Kaski,28.2152126,83.9581447
node,978322998,Nepal Hotel,hotel,Not Available,Not Available,Not Available,Not Available,Not Available,Not Available,Not Available,Not Available,Kaski,28.21378,83.9599162
node,978323000,Millennium Guesthouse,guest_house,Not Available,Not Available,Not Available,Not Available,Not Available,Not Available,Not Available,Not Available,Kaski,28.213211,83.9612911
node,978323003,Buddha Hotel,hotel,Not Available,Not Available,Not Available,Not Available,Not Available,Not Available,Not Available,Not Available,Kaski,28.2131091,83.9614901
node,978323018,Lonely Guest House,guest_house,Not Available,Not Available,Not Available,Not Available,Not Available,Not Available,Not Available,Not Available,Kaski,28.2090509,83.9617364
node,978323020,Fujihana Guest House,guest_house,Not Available,Not Available,Not Available,Not Available,Not Available,Not Available,Not Available,Not Available,Kaski,28.209141,83.9617994
node,978323024,Gurkha Lodge,guest_house,Not Available,Not Available,Not Available,Not Available,Not Available,Not Available,Not Available,Not Available,Kaski,28.2073028,83.9656892
node,978323039,Summit Guesthouse,guest_house,Not Available,Not Available,Not Available,Not Available,Not Available,Not Available,Not Available,Not Available,Kaski,28.2053485,83.9678319
node,978323043,New Pokhara Lodge,guest_house,Not Available,Not Available,Not Available,Not Available,Not Available,Not Available,Not Available,Not Available,Kaski,28.2043326,83.9670578
node,978323045,K2 Hotel,hotel,Not Available,Not Available,Not Available,Not Available,Not Available,Not Available,Not Available,Not Available,Kaski,28.204008,83.967112
node,987397965,Hotel Sunrise,guest_house,Not Available,Not Available,Not Available,Not Available,Not Available,Not Available,Not Available,Not Available,Kaski,28.3097024,83.7751364
node,987397966,Evergreen Lodge,guest_house,Not Available,Not Available,Not Available,Not Available,Not Available,Not Available,Not Available,Not Available,Kaski,28.3104432,83.7736044
node,987397968,Mira Lodge,guest_house,Not Available,Not Available,Not Available,Not Available,Not Available,Not Available,Not Available,Not Available,Kaski,28.3258234,83.7515404
node,987397970,Mountain Lodge,guest_house,Not Available,Not Available,Not Available,Not Available,Not Available,Not Available,Not Available,Not Available,Kaski,28.3271456,83.7476473
node,987397971,Anjana Lodge,guest_house,Not Available,Not Available,Not Available,Not Available,Not Available,Not Available,Not Available,Not Available,Kaski,28.3361304,83.7414746
node,987397972,Mamta Guesthouse,guest_house,Not Available,Not Available,Not Available,Not Available,Not Available,Not Available,Not Available,Not Available,Kaski,28.3422188,83.7415663
node,987397973,See You Lodge,guest_house,Not Available,Not Available,Not Available,Not Available,Not Available,Not Available,Not Available,Not Available,Kaski,28.3426338,83.74157
node,987397974,Sushma Guesthouse,guest_house,Not Available,Not Available,Not Available,Not Available,Not Available,Not Available,Not Available,Not Available,Kaski,28.3438403,83.7413075
node,987397975,Laxmi Lodge,guest_house,Not Available,Not Available,Not Available,Not Available,Not Available,Not Available,Not Available,Not Available,Kaski,28.34434,83.7414115
node,987397976,Dipak Guesthouse,guest_house,Not Available,Not Available,Not Available,Not Available,Not Available,Not Available,Not Available,Not Available,Kaski,28.3446994,83.7415038
node,987397979,Kamala Guesthouse,guest_house,Not Available,Not Available,Not Available,Not Available,Not Available,Not Available,Not Available,Not Available,Kaski,28.3488029,83.742063
node,987397980,Chandra Guesthouse,guest_house,Not Available,Not Available,980673214430,Not Available,Not Available,Not Available,Not Available,Not Available,Kaski,28.3492949,83.7422661
node,987557019,Sunrise Guesthouse,guest_house,Not Available,Not Available,Not Available,Not Available,Not Available,Not Available,Not Available,Not Available,Kaski,28.3757077,83.8078756
node,987557021,Peaceful Lodge,guest_house,Not Available,Not Available,Not Available,Not Available,Not Available,Not Available,Not Available,Not Available,Kaski,28.3755188,83.8079996
node,987557041,Manisha Hotel,guest_house,Not Available,Not Available,Not Available,Not Available,Not Available,Not Available,Not Available,Not Available,Kaski,28.3752871,83.8082951
node,987557764,Bright Guesthouse,hotel,Not Available,Not Available,"9846223245,9806514467",Not Available,Not Available,Not Available,Not Available,"Bishnu Gurung, Sunita Gurung",Kaski,28.3731105,83.8185532
node,987557827,Bee Hive Guesthouse,guest_house,Not Available,Not Available,Not Available,Not Available,Not Available,Not Available,Not Available,Not Available,Kaski,28.3741147,83.8193577
node,988616558,Paradise Guesthouse,guest_house,Not Available,Not Available,Not Available,Not Available,Not Available,Not Available,Not Available,Not Available,Kaski,28.3522668,83.8294712
node,988616559,Super View Guesthouse,guest_house,Not Available,Not Available,Not Available,Not Available,Not Available,Not Available,Not Available,Not Available,Kaski,28.3663679,83.824597
node,988616561,International Guesthouse,guest_house,Not Available,Not Available,Not Available,Not Available,Not Available,Not Available,Not Available,Not Available,Kaski,28.352132,83.8293627
node,988616562,Sunny Guesthouse,guest_house,Not Available,Not Available,Not Available,Not Available,Not Available,Not Available,Not Available,Not Available,Kaski,28.3520213,83.8291965
node,988616563,Hira Lodge,guest_house,Not Available,Not Available,Not Available,Not Available,Not Available,Not Available,Not Available,Not Available,Kaski,28.3516806,83.8287248
node,988616564,Tolka Guesthouse,guest_house,Not Available,Not Available,Not Available,Not Available,Not Available,Not Available,Not Available,Not Available,Kaski,28.3517615,83.8267884
node,988616565,Ram Lodge,guest_house,Not Available,Not Available,Not Available,Not Available,Not Available,Not Available,Not Available,Not Available,Kaski,28.3518994,83.8246051
node,988616566,Sapna Lodge,guest_house,Not Available,Not Available,Not Available,Not Available,Not Available,Not Available,Not Available,Not Available,Kaski,28.346515,83.8233994
node,988616568,Excellent View Guesthouse & Restaurant,guest_house,Not Available,Not Available,Not Available,Not Available,Not Available,Not Available,Not Available,Not Available,Kaski,28.3452126,83.8241484
node,988616569,Sunlight Guesthouse & Restaurant,guest_house,Not Available,Not Available,Not Available,Not Available,Not Available,Not Available,Not Available,Not Available,Kaski,28.3429689,83.8242425
node,988616574,Hita Guesthouse Restaurant,guest_house,Not Available,Not Available,Not Available,Not Available,Not Available,Not Available,Not Available,Not Available,Kaski,28.3386709,83.8317767
node,988616576,Sundar Guesthouse,guest_house,Not Available,Not Available,Not Available,Not Available,Not Available,Not Available,Not Available,Not Available,Kaski,28.3375493,83.8303155
node,988616577,Archana Guesthouse & Restaurant,guest_house,Not Available,Not Available,Not Available,Not Available,Not Available,Not Available,Not Available,Not Available,Kaski,28.3348348,83.8306668
node,988616588,Paradise Hotel,hotel,Not Available,Not Available,Not Available,Not Available,Not Available,Not Available,Not Available,Not Available,Kaski,28.3040819,83.8412439
node,988616589,Dhaulagiri View Hotel,hotel,Not Available,Not Available,Not Available,Not Available,Not Available,Not Available,Not Available,Not Available,Kaski,28.2998466,83.8470947
node,988616590,Nice View Guest House,hotel,Not Available,Not Available,Not Available,Not Available,Not Available,Not Available,Not Available,Not Available,Kaski,28.3004046,83.8473777
node,988616591,New Excellent View Guesthouse,guest_house,Not Available,Not Available,Not Available,Not Available,Not Available,Not Available,Not Available,Not Available,Kaski,28.3004526,83.8475877
node,988616592,Yama Sakura Guesthouse,guest_house,Not Available,Not Available,Not Available,Not Available,Not Available,Not Available,Not Available,Not Available,Kaski,28.3004865,83.8482543
node,988616593,Green Land Hotel,guest_house,Not Available,Not Available,9856026993,Not Available,Not Available,Not Available,Not Available,Not Available,Kaski,28.300596,83.8482928
node,988616594,Panaroma Point Lodge,hotel,Not Available,Not Available,Not Available,Not Available,Not Available,Not Available,Not Available,Not Available,Kaski,28.3002769,83.8489451
node,995932650,Green View Lodge,guest_house,Not Available,Not Available,Not Available,Not Available,Not Available,Not Available,Not Available,Not Available,Kaski,28.3110788,83.7731286
node,1184218577,Nepal Tourism Board,information,Not Available,https://www.welcomenepal.com/,Not Available,Not Available,Su-Th 10:00-17:00; Fr 10:00-13:00,Not Available,Not Available,Not Available,Kaski,28.1988715,83.9689962
node,1280030112,Prakash Guesthouse,guest_house,Not Available,Not Available,Not Available,Not Available,Not Available,Not Available,Not Available,Not Available,Kaski,28.1691011,84.1148613
node,1280030189,Hotel Annapurna lake view,guest_house,Not Available,Not Available,+977 9856021252,Not Available,24/7,Not Available,Not Available,Mr.Govinda Jalari,Kaski,28.1722387,84.0924849
node,1280030288,Begnas Coffee House,guest_house,Not Available,Not Available,Not Available,Not Available,Not Available,Not Available,Not Available,Not Available,Kaski,28.1635102,84.1042266
node,1280030990,Hill Top Hotel,guest_house,Not Available,Not Available,Not Available,Not Available,Not Available,Not Available,Not Available,Not Available,Kaski,28.172209,84.0913816
node,1338303817,View Top Lodge and Restaurant,hotel,Not Available,Not Available,"9846292257 ,9746064324",Not Available,09:00-20:00,Not Available,Not Available,Bikash Thapa,Kaski,28.243297,83.9481824
node,1338303819,Lake View Lodge,hotel,Not Available,http://www.sarangkothotel.com,9804172673,info@sarangkothotel.com,Mo-Su 06:00-22:00,Not Available,Not Available,Not Available,Kaski,28.2441623,83.9486021
node,1352229250,Mums Garden Resort,hotel,Not Available,Not Available,Not Available,Not Available,Not Available,Not Available,Not Available,Not Available,Kaski,28.2034965,83.9668909
node,1352234851,Giri Guesthouse,guest_house,Not Available,Not Available,Not Available,Not Available,Not Available,Not Available,Not Available,Not Available,Kaski,28.2068159,83.9604938
node,1352234861,Green Tara,hotel,Not Available,Not Available,9851052519,Not Available,Not Available,Not Available,Not Available,Not Available,Kaski,28.2069322,83.9601723
node,1352234872,Sacred Valley Inn,hotel,Not Available,Not Available,Not Available,Not Available,Not Available,Not Available,Not Available,Not Available,Kaski,28.2066529,83.9590937
node,1352234875,Viewpoint Hotel,hotel,Not Available,Not Available,Not Available,Not Available,Not Available,Not Available,Not Available,Not Available,Kaski,28.2062232,83.9615708
