ID,Name,Type,Tourism_Category,Latitude,Longitude,City,features
267667122,Rockland Hotel,node,hotel,28.2113597,83.9631084,,node hotel 
297440084,Shangri La,node,hotel,28.8364316,83.7830476,,node hotel 
297440085,Yak Hotel,node,hotel,28.7114278,83.6487653,,node hotel 
316984536,Madhuban,node,hotel,27.72423,85.5244848,,node hotel 
316985065,The Lakeside Retreat - Pokhara,node,hotel,28.2043486,83.9662542,Pokhara,node hotel Pokhara
316995112,Indra Guest House,node,guest_house,28.3490978,83.7421334,,node guest_house 
317040754,Nirvana Garden Hotel,node,hotel,27.7127441,85.3096875,,node hotel 
339102258,Dakshinkali Resort,node,hotel,27.6069446,85.2674087,,node hotel 
354456043,Family guesthouse,node,hotel,27.6127139,85.2641817,,node hotel 
419103135,Hotel Everest,node,guest_house,27.8039633,86.7084737,,node guest_house 
425189331,Yeti Inn,node,guest_house,27.8677535,86.7298787,,node guest_house 
428552946,Everest View,node,viewpoint,27.8196122,86.7236602,,node viewpoint 
442197769,Kongde Peak Guest House,node,guest_house,27.7509099,86.7114434,,node guest_house 
442260810,Paradise Lodge,node,guest_house,27.8934679,86.7191977,,node guest_house 
484488430,Cho La Pass Resort,node,guest_house,27.9406302,86.7199459,,node guest_house 
520698757,Sarangkot Viewpoint,node,viewpoint,28.2436947,83.9574975,,node viewpoint 
520702266,Lonely View Lodge,node,guest_house,28.218097,83.9592252,,node guest_house 
530579647,Dhaulagiri,node,viewpoint,28.6976088,83.4894884,,node viewpoint 
553319545,Hotel Arniko,node,hotel,27.6240666,85.5492571,,node hotel 
558561826,Hotel Shanker,node,hotel,27.7189329,85.3199249,,node hotel 
564109888,Pangboche,node,guest_house,27.8565776,86.7880999,,node guest_house 
564120040,Monjo,node,guest_house,27.7714811,86.722963,,node guest_house 
564120295,Phakding,node,guest_house,27.7435581,86.7128481,,node guest_house 
564122715,Lukla Lodge,node,guest_house,27.6934465,86.7279924,,node guest_house 
565159946,मकालु 马卡鲁峰,node,viewpoint,27.8914385,87.0884403,,node viewpoint 
567131171,Wildlife Camp,node,hotel,27.5796638,84.4944877,,node hotel 
567142203,Tharu Cultural Museum,node,museum,27.581435,84.5084926,,node museum 
567142207,Tharu Cultural Museum,node,museum,27.5823723,84.5075435,,node museum 
567142502,Chitwan National Park Info Office,node,information,27.5741111,84.4937879,,node information 
567151136,Elephant Riding,node,attraction,27.5943703,84.4814665,,node attraction 
567943577,The White Lake,node,hotel,27.8657895,83.5442615,,node hotel 
568497246,Boat for rent,node,attraction,28.2034895,83.9626075,,node attraction 
568542954,Hotel Landmark,node,hotel,28.2078818,83.9575377,,node hotel 
575231594,Tibet Peace Guest House,node,guest_house,27.7179328,85.3088723,,node guest_house 
576713400,Camp 4S South Col,node,camp_site,27.9733654,86.9302508,,node camp_site 
587211680,Omje Khola Campsite,node,camp_site,27.4828061,87.9126748,,node camp_site 
598257096,Upper-Tseram,node,camp_site,27.575468,87.9800844,,node camp_site 
601450235,Hotel Tashi Delek,node,hotel,28.1106827,85.3402831,,node hotel 
603104985,Hotel Lake Side,node,hotel,28.0841016,85.4100228,,node hotel 
603104987,Namaste Hotel & Lodge,node,alpine_hut,28.0344607,85.4814679,,node alpine_hut 
605254986,Hotel Green Land,node,hotel,28.3006837,83.8487103,,node hotel 
632389714,Blue Star lodge,node,hotel,28.1427659,85.360258,,node hotel 
632389757,Hotel Ganesh View Lodge,node,guest_house,28.1588314,85.4210754,,node guest_house 
632389897,Lower Kyāṅjiṅ Ri,node,viewpoint,28.2176703,85.5706875,,node viewpoint 
671300772,Himalaya Apartments,node,hotel,27.675673,85.3132198,,node hotel 
703894849,Everest View,node,viewpoint,27.7935073,86.7158913,,node viewpoint 
703894933,Everest View Point,node,viewpoint,27.8025621,86.7153093,,node viewpoint 
703971944,View to Cho Oyu,node,viewpoint,27.94847,86.6151392,,node viewpoint 
703972266,रेंजो ला,node,viewpoint,27.9473697,86.6584966,,node viewpoint 
703972430,Namaste Lodge,node,guest_house,27.8050237,86.7106252,,node guest_house 
704001184,Lodge,node,guest_house,27.8456213,86.7486502,,node guest_house 
708987883,International Guesthouse,node,guest_house,27.716056,85.3080357,,node guest_house 
713296206,Phils Inn,node,guest_house,28.216607,83.9585057,,node guest_house 
736940464,शेर्पा संस्कृति संग्रहालय,node,museum,27.8050388,86.714347,,node museum 
763665000,Sweet Dream Hotel,node,hotel,28.970483,80.183871,,node hotel 
763684019,Hotel Lake Diamond,node,hotel,28.2103363,83.9598865,Pokhara,node hotel Pokhara
763689090,Eden Hotel,node,hotel,28.2068464,83.9614103,,node hotel 
765033916,Tatopani Family Lodge,node,guest_house,27.9460706,85.9501284,,node guest_house 
766944560,View to Everest,node,viewpoint,27.569184,86.583238,,node viewpoint 
766944568,View to Everest,node,viewpoint,27.5723219,86.584273,,node viewpoint 
845563398,Taishan Hotel,node,hotel,27.7113111,85.3117495,,node hotel 
849979315,Nagarkot Paradise Hotel,node,hotel,27.7236518,85.5255411,,node hotel 
849979321,The Fort,node,hotel,27.7240767,85.5257353,,node hotel 
850628338,Khudi,node,guest_house,28.2810894,84.3582715,,node guest_house 
852873689,Lata Marang,node,guest_house,28.5442936,84.3018922,,node guest_house 
852891616,Starwood,node,guest_house,28.5273044,84.3044287,,node guest_house 
854340318,New Hotel Moon Lake,node,alpine_hut,28.6802075,83.9066189,,node alpine_hut 
854367540,Hotel New Phedi,node,alpine_hut,28.7772492,83.9725759,,node alpine_hut 
854367550,Marshiangdi Hotel,node,hotel,28.6846564,83.9988506,,node hotel 
854367569,Thorong High Camp Hotel,node,alpine_hut,28.7827334,83.9675199,,node alpine_hut 
854367571,high camp,node,camp_site,28.7828609,83.9675305,,node camp_site 
943246297,Pilgrims Guest House,node,hotel,27.717619,85.3115799,,node hotel 
943246301,Avalon House,node,hotel,27.7187929,85.3115107,,node hotel 
943246319,Kumari Hotel,node,hotel,27.7152564,85.3112966,,node hotel 
943246321,Hotel Manang,node,hotel,27.7177391,85.3101198,,node hotel 
943246322,Kathmandu Grand Hotel,node,hotel,27.7173404,85.3101843,Kathmandu,node hotel Kathmandu
943246323,Marshyangdi Hotel,node,hotel,27.7170604,85.3101629,Thamel,node hotel Thamel
943246324,Tradition,node,hotel,27.7155417,85.3091972,,node hotel 
949307742,Lailai Hotel,node,hotel,27.7099108,85.306275,,node hotel 
949307744,Ganesh Himal Hotel,node,hotel,27.7098396,85.3065477,,node hotel 
973481922,Royal Summer Palace,node,attraction,29.2071415,83.9403367,,node attraction 
973483428,Royal Palace,node,attraction,29.0927173,83.9336999,,node attraction 
973490389,Lo Manthang Guesthouse,node,guest_house,29.1827214,83.9575704,,node guest_house 
973821261,New Friendly Home,node,guest_house,28.2061619,83.9608862,,node guest_house 
973821264,Annapurna Lodge,node,hotel,28.5420799,83.6488348,,node hotel 
973821270,Hotel Trekkers Inn,node,hotel,28.4954006,83.6535966,,node hotel 
973821272,Hotel Monalisa,node,hotel,28.445098,83.6683769,,node hotel 
973821280,New Daulagiri,node,hotel,28.4236248,83.694183,,node hotel 
973821299,Snow Hill Lodge,node,hotel,28.2035185,83.9665202,,node hotel 
973821301,Peace Eye Guest House,node,guest_house,28.2069931,83.9623749,,node guest_house 
974384817,Red House,node,guest_house,28.8377231,83.7846378,,node guest_house 
977262750,New Annapurna Guesthouse,node,guest_house,28.2037058,83.9674472,,node guest_house 
977284017,Old Royal Palace,node,attraction,29.0640428,83.8729595,,node attraction 
977284052,Charang Village Gate,node,attraction,29.0877217,83.9274622,,node attraction 
977284069,Green Hotel,node,guest_house,29.0921455,83.9326039,,node guest_house 
977466690,Hotel Anita,node,guest_house,28.9914409,83.8387938,,node guest_house 
977466691,Nilgiri Hotel,node,guest_house,28.991169,83.8380309,,node guest_house 
977466692,Hotel Dhaulagiri,node,guest_house,28.9911581,83.8386632,,node guest_house 
977466696,Hotel Kunga,node,guest_house,29.0069416,83.8567443,,node guest_house 
978322936,Snowland Hotel,node,hotel,28.2089262,83.9576381,,node hotel 
978322938,Lake Vision Guesthouse,node,guest_house,28.2195461,83.9586623,,node guest_house 
978322941,Shining Star Hotel,node,hotel,28.2173093,83.9590916,,node hotel 
978322957,Hotel Tropicana,node,hotel,28.2171335,83.9590312,,node hotel 
978322959,Mandap Hotel,node,hotel,28.2169848,83.9589863,,node hotel 
978322961,Be Happy Guesthouse,node,guest_house,28.2167297,83.9589459,,node guest_house 
978322963,Laxmi Guesthouse,node,guest_house,28.2165841,83.9588238,,node guest_house 
978322978,Crown Hotel,node,hotel,28.2158708,83.958772,,node hotel 
978322981,Plaza Annapurna Hotel,node,hotel,28.2156626,83.9587271,,node hotel 
978322982,Peace Plaza Hotel,node,hotel,28.2152126,83.9581447,,node hotel 
978322998,Nepal Hotel,node,hotel,28.21378,83.9599162,,node hotel 
978323000,Millennium Guesthouse,node,guest_house,28.213211,83.9612911,,node guest_house 
978323003,Buddha Hotel,node,hotel,28.2131091,83.9614901,,node hotel 
978323018,Lonely Guest House,node,guest_house,28.2090509,83.9617364,,node guest_house 
978323020,Fujihana Guest House,node,guest_house,28.209141,83.9617994,,node guest_house 
978323024,Gurkha Lodge,node,guest_house,28.2073028,83.9656892,,node guest_house 
978323039,Summit Guesthouse,node,guest_house,28.2053485,83.9678319,,node guest_house 
978323043,New Pokhara Lodge,node,guest_house,28.2043326,83.9670578,,node guest_house 
978323045,K2 Hotel,node,hotel,28.204008,83.967112,,node hotel 
987397965,Hotel Sunrise,node,guest_house,28.3097024,83.7751364,"Annapurna Rural Municipality, Ward No. 8","node guest_house Annapurna Rural Municipality, Ward No. 8"
987397966,Evergreen Lodge,node,guest_house,28.3104432,83.7736044,"Annapurna Rural Municipality, Ward No. 8","node guest_house Annapurna Rural Municipality, Ward No. 8"
987397968,Mira Lodge,node,guest_house,28.3258234,83.7515404,,node guest_house 
987397970,Mountain Lodge,node,guest_house,28.3271456,83.7476473,,node guest_house 
987397971,Anjana Lodge,node,guest_house,28.3361304,83.7414746,,node guest_house 
987397972,Mamta Guesthouse,node,guest_house,28.3422188,83.7415663,,node guest_house 
987397973,See You Lodge,node,guest_house,28.3426338,83.74157,,node guest_house 
987397974,Sushma Guesthouse,node,guest_house,28.3438403,83.7413075,,node guest_house 
987397975,Laxmi Lodge,node,guest_house,28.34434,83.7414115,,node guest_house 
987397976,Dipak Guesthouse,node,guest_house,28.3446994,83.7415038,"Annapurna Rural Municipality, Ward No.9","node guest_house Annapurna Rural Municipality, Ward No.9"
987397979,Kamala Guesthouse,node,guest_house,28.3488029,83.742063,,node guest_house 
987397980,Chandra Guesthouse,node,guest_house,28.3492949,83.7422661,,node guest_house 
987397981,Laxmi Guesthouse,node,guest_house,28.3493828,83.7426656,,node guest_house 
987557019,Sunrise Guesthouse,node,guest_house,28.3757077,83.8078756,,node guest_house 
987557021,Peaceful Lodge,node,guest_house,28.3755188,83.8079996,,node guest_house 
987557041,Manisha Hotel,node,guest_house,28.3752871,83.8082951,,node guest_house 
987557764,Bright Guesthouse,node,hotel,28.3731105,83.8185532,"Annapurna Rural Municipality, Ward No. 11","node hotel Annapurna Rural Municipality, Ward No. 11"
987557827,Bee Hive Guesthouse,node,guest_house,28.3741147,83.8193577,,node guest_house 
988616558,Paradise Guesthouse,node,guest_house,28.3522668,83.8294712,"Annapurna Rural Municipality, Ward No. 10","node guest_house Annapurna Rural Municipality, Ward No. 10"
988616559,Super View Guesthouse,node,guest_house,28.3663679,83.824597,,node guest_house 
988616561,International Guesthouse,node,guest_house,28.352132,83.8293627,"Annapurna Rural Municipality, Ward No. 10","node guest_house Annapurna Rural Municipality, Ward No. 10"
988616562,Sunny Guesthouse,node,guest_house,28.3520213,83.8291965,"Annapurna Rural Municipality, Ward No. 10","node guest_house Annapurna Rural Municipality, Ward No. 10"
988616563,Hira Lodge,node,guest_house,28.3516806,83.8287248,"Annapurna Rural Municipality, Ward No. 10","node guest_house Annapurna Rural Municipality, Ward No. 10"
988616564,Tolka Guesthouse,node,guest_house,28.3517615,83.8267884,"Annapurna Rural Municipality, Ward No. 10","node guest_house Annapurna Rural Municipality, Ward No. 10"
988616565,Ram Lodge,node,guest_house,28.3518994,83.8246051,"Annapurna Rural Municipality, Ward No. 10","node guest_house Annapurna Rural Municipality, Ward No. 10"
988616566,Sapna Lodge,node,guest_house,28.346515,83.8233994,"Annapurna Rural Municipality, Ward No. 10","node guest_house Annapurna Rural Municipality, Ward No. 10"
988616568,Excellent View Guesthouse & Restaurant,node,guest_house,28.3452126,83.8241484,"Annapurna Rural Municipality, Ward No. 10","node guest_house Annapurna Rural Municipality, Ward No. 10"
988616569,Sunlight Guesthouse & Restaurant,node,guest_house,28.3429689,83.8242425,"Annapurna Rural Municipality, Ward No. 10","node guest_house Annapurna Rural Municipality, Ward No. 10"
988616574,Hita Guesthouse Restaurant,node,guest_house,28.3386709,83.8317767,"Annapurna Rural Municipality, Ward No. 10","node guest_house Annapurna Rural Municipality, Ward No. 10"
988616576,Sundar Guesthouse,node,guest_house,28.3375493,83.8303155,"Annapurna Rural Municipality, Ward No. 10","node guest_house Annapurna Rural Municipality, Ward No. 10"
988616577,Archana Guesthouse & Restaurant,node,guest_house,28.3348348,83.8306668,"Annapurna Rural Municipality, Ward No. 10","node guest_house Annapurna Rural Municipality, Ward No. 10"
988616588,Paradise Hotel,node,hotel,28.3040819,83.8412439,,node hotel 
988616589,Dhaulagiri View Hotel,node,hotel,28.2998466,83.8470947,,node hotel 
988616590,Nice View Guest House,node,hotel,28.3004046,83.8473777,,node hotel 
988616591,New Excellent View Guesthouse,node,guest_house,28.3004526,83.8475877,,node guest_house 
988616592,Yama Sakura Guesthouse,node,guest_house,28.3004865,83.8482543,,node guest_house 
988616593,Green Land Hotel,node,guest_house,28.300596,83.8482928,,node guest_house 
988616594,Panaroma Point Lodge,node,hotel,28.3002769,83.8489451,,node hotel 
992508276,Potala Guesthouse,node,hotel,27.7122773,85.310626,,node hotel 
995835493,Tourist Information Center,node,information,28.7828613,83.7254498,,node information 
995836839,River Side Lodge,node,guest_house,28.6868822,83.6150348,,node guest_house 
995841952,Tourist Check Post and Information Center,node,information,28.6076052,83.6440872,,node information 
995841953,National Lodge,node,guest_house,28.6091406,83.6435331,,node guest_house 
995930678,Namaste Lodge,node,guest_house,28.4211006,83.6959911,,node guest_house 
995932650,Green View Lodge,node,guest_house,28.3110788,83.7731286,"Annapurna Rural Municipality, Ward No. 8","node guest_house Annapurna Rural Municipality, Ward No. 8"
995932653,Hungry Eye Lodge,node,guest_house,28.4030732,83.6994764,,node guest_house 
1026419990,Community Lodge,node,guest_house,27.5575839,85.966928,,node guest_house 
1026430456,Newar Homestay Surkey,node,guest_house,27.5053516,85.9820004,,node guest_house 
1036992010,Chitwan Forest Resort,node,hotel,27.5814939,84.4933201,,node hotel 
1036992013,Wendy's Lodge,node,guest_house,27.579975,84.4939485,,node guest_house 
1036992015,Hambro Hotel,node,hotel,27.575503,84.4934985,,node hotel 
1036992016,Hotel Nature Heritage,node,guest_house,27.5752772,84.4938066,,node guest_house 
1036992017,Hotel Riverside,node,guest_house,27.5757228,84.4935964,,node guest_house 
1036992019,Royal Park Hotel,node,hotel,27.5766044,84.4942566,,node hotel 
1036992020,Rhino Lodge,node,guest_house,27.577962,84.4938869,,node guest_house 
1036992021,Jungle Safari Lodge,node,guest_house,27.5783811,84.4943653,,node guest_house 
1036992022,River View Jungle Camp,node,guest_house,27.5785862,84.4939309,,node guest_house 
1036992023,Chitwan Resort and Camp,node,hotel,27.5795771,84.4939309,,node hotel 
1037219146,Shuk Sagar Hotel,node,hotel,26.7315547,85.9251502,,node hotel 
1038273465,Elephant Safari Resort,node,guest_house,27.5839582,84.4676585,,node guest_house 
1038273470,Paradise Hotel,node,hotel,27.5830949,84.4877969,,node hotel 
1038273473,Jungle Lodge Hotel,node,hotel,27.5810427,84.4934679,,node hotel 
1046594367,Manaslu Checkpoint,node,information,28.3514273,84.8957226,,node information 
1046595043,Hotel Tilche,node,alpine_hut,28.5448168,84.3808556,,node alpine_hut 
1046603926,Tsum Valley or Larke Pass,node,information,28.4322172,84.897521,,node information 
1046605306,Yuru Khola,node,camp_site,28.3273346,84.9078374,,node camp_site 
1184218577,Nepal Tourism Board,node,information,28.1988715,83.9689962,,node information 
1280030112,Prakash Guesthouse,node,guest_house,28.1691011,84.1148613,,node guest_house 
1280030189,Hotel Annapurna lake view,node,guest_house,28.1722387,84.0924849,,node guest_house 
1280030288,Begnas Coffee House,node,guest_house,28.1635102,84.1042266,,node guest_house 
1280030990,Hill Top Hotel,node,guest_house,28.172209,84.0913816,,node guest_house 
1322265314,Khadgami Guest House,node,guest_house,27.9370747,84.4056379,,node guest_house 
1323518149,Everest Hotel,node,hotel,28.072262,81.6313467,,node hotel 
1329281600,Silk Factory,node,yes,27.9345151,84.3955453,,node yes 
1329314640,Green Park Resort,node,hotel,27.9407117,84.4058772,,node hotel 
1329317073,Mountain view,node,viewpoint,27.9399704,84.4101377,,node viewpoint 
1329319684,Siddha Cave,node,attraction,27.9484399,84.4185018,,node attraction 
1329331034,Ramkot,node,yes,27.9468823,84.363818,,node yes 
1330352604,Dhuni Pati,node,museum,28.0042154,84.629058,,node museum 
1330353540,Tallo Kot,node,attraction,28.0050334,84.6250791,,node attraction 
1330353593,Upallo Kot,node,attraction,28.0041951,84.6343917,,node attraction 
1338303817,View Top Lodge and Restaurant,node,hotel,28.243297,83.9481824,,node hotel 
1338303819,Lake View Lodge,node,hotel,28.2441623,83.9486021,,node hotel 
1341029270,Entry to National Park,node,information,27.8240677,85.4483823,,node information 
1341029283,Hotel Lama,node,hotel,27.7639353,85.4981579,,node hotel 
1341029402,Green Valley,node,hotel,27.7230736,85.5277766,,node hotel 
1341029439,Hotel Country Villa,node,hotel,27.7268402,85.5252313,,node hotel 
1341052505,Lodge,node,hotel,27.5823681,84.4951611,,node hotel 
1341052548,Safari Adventure Lodge,node,hotel,27.5850688,84.473262,,node hotel 
1343823116,Dolma Guesthouse,node,hostel,28.1421535,85.3663922,,node hostel 
1343823370,cliff honey bee,node,attraction,28.1567222,85.3903594,,node attraction 
1343823402,cliff honey bee,node,attraction,28.1547021,85.3804313,,node attraction 
1343823419,Hotel Sky,node,hotel,28.1620726,85.3365607,,node hotel 
1343823429,Dunche Guest House,node,hotel,28.112708,85.2962721,,node hotel 
1343823470,Laligurash,node,guest_house,28.1181591,85.3631681,,node guest_house 
1343823492,Deurali,node,guest_house,28.104378,85.324308,,node guest_house 
1349642553,Excelsior Hotel,node,hotel,27.7145164,85.3105455,,node hotel 
1349658484,Vaishali,node,hotel,27.7166119,85.3111787,,node hotel 
1349658485,Surya,node,hotel,27.7154882,85.311547,,node hotel 
1349658486,Namaskar,node,guest_house,27.7161924,85.3112782,,node guest_house 
1349658487,Iceland,node,hotel,27.7164382,85.3101463,,node hotel 
1349658489,Impala,node,hotel,27.7175447,85.3101951,,node hotel 
1349658500,Karma,node,hotel,27.7163128,85.3109255,,node hotel 
1349664584,Thara,node,hotel,27.7124799,85.3112618,,node hotel 
1349680673,Poon Hill,node,hotel,27.7115695,85.3090587,,node hotel 
1349680681,Hotel Blue Diamond,node,hotel,27.7123764,85.3120896,Kathmandu,node hotel Kathmandu
1349680686,Pisang,node,hotel,27.7129315,85.3110456,,node hotel 
1349680694,Lhasa,node,guest_house,27.7118221,85.3120405,,node guest_house 
1349680697,Utse,node,hotel,27.7121432,85.3122725,,node hotel 
1349680700,Yanki,node,hotel,27.7118116,85.3090654,,node hotel 
1349680726,Norling Guesthouse,node,guest_house,27.7104358,85.3111012,,node guest_house 
1349680727,My Home,node,hotel,27.7130291,85.3110593,,node hotel 
1349680754,Hotel Elite,node,hotel,27.7109599,85.312051,,node hotel 
1349680757,Norling,node,hotel,27.7123965,85.3122679,,node hotel 
1349697686,Annapurna,node,guest_house,27.7173881,85.312673,,node guest_house 
1349697700,यती,node,hotel,27.7164231,85.3136584,,node hotel 
1349697713,शक्ति,node,hotel,27.7167364,85.3129529,,node hotel 
1349697722,Samsara Resort,node,hotel,27.7168609,85.3109242,,node hotel 
1349697725,Hotel Dolphin,node,guest_house,27.7173793,85.3121267,Thamel,node guest_house Thamel
1349697726,Kathmandu Aagantuk Hotel,node,hotel,27.7174783,85.3111977,,node hotel 
1349697727,Hotel Norbulinka,node,hotel,27.7172551,85.3124959,,node hotel 
1349697737,Mandap,node,hotel,27.7162296,85.3098996,,node hotel 
1349697738,Zzang,node,hotel,27.7175115,85.3106935,,node hotel 
1349697742,भिल्ला एभरेस्ट,node,hotel,27.7170023,85.3130629,,node hotel 
1350011393,Holy Lodge,node,hotel,27.7158876,85.3097549,,node hotel 
1350011407,Acme Guest House,node,hotel,27.7158262,85.3106242,,node hotel 
1350011409,Prince,node,hotel,27.7157449,85.3098144,,node hotel 
1350011414,Northfield Hotel,node,hotel,27.7158128,85.3103243,,node hotel 
1350027110,ACAP Office,node,information,27.7020475,85.3169983,,node information 
1352229250,Mums Garden Resort,node,hotel,28.2034965,83.9668909,,node hotel 
1352234851,Giri Guesthouse,node,guest_house,28.2068159,83.9604938,,node guest_house 
1352234861,Green Tara,node,hotel,28.2069322,83.9601723,,node hotel 
1352234872,Sacred Valley Inn,node,hotel,28.2066529,83.9590937,,node hotel 
1352234875,Viewpoint Hotel,node,hotel,28.2062232,83.9615708,,node hotel 
1352234878,Laxman Restaurant and Bar,node,guest_house,28.2060271,83.9606748,,node guest_house 
1352860975,Mandala,node,hotel,28.2147532,83.9589027,,node hotel 
1355676829,Peace and Love Hotel,node,hotel,28.2993096,84.3869957,,node hotel 
1366437371,Hotel Machhapuchhre,node,hotel,28.2160911,83.958934,,node hotel 
1366438445,HOTEL ANNAPURNA ASHIRVAD,node,hotel,28.2133762,83.9601426,Pokhara,node hotel Pokhara
1366446650,ACAP Permit & TIMS Counter,node,information,28.1988951,83.969066,,node information 
1366472477,Sunrise Guest House,node,guest_house,28.266042,83.9183142,,node guest_house 
1366484298,Sunita Guest House and Restaurant,node,guest_house,28.2730975,83.8974614,,node guest_house 
1366484299,Shiva Lodge and Restaurant,node,guest_house,28.2731983,83.8973042,,node guest_house 
1366506520,Guest House,node,guest_house,28.2813255,83.8668308,,node guest_house 
1366527306,Hill Top Guest House,node,guest_house,28.3002367,83.8582184,,node guest_house 
1366542224,Tourist Check Post,node,information,28.3046178,83.8413348,,node information 
1366598694,Manisha Hotel & Restaurant,node,guest_house,28.2929508,83.8230051,"Annapurna Rural Municipality, Ward No.3","node guest_house Annapurna Rural Municipality, Ward No.3"
1366637709,Hotel Nirvana,node,guest_house,28.3047484,83.7852437,,node guest_house 
1366648615,Gurung Hotel,node,guest_house,28.2646582,83.8198583,,node guest_house 
1366677049,Kalika View Point,node,guest_house,28.2104374,84.0810562,,node guest_house 
1366694721,Gautam Restaurant,node,guest_house,28.165259,84.0910815,,node guest_house 
1366695537,Begnas lodge and restaurant,node,guest_house,28.1651619,84.0911644,,node guest_house 
1366701408,Lake View,node,guest_house,28.1652248,84.0939351,,node guest_house 
1382776320,ACAP Tourist Check Post,node,information,28.3132246,83.8302988,,node information 
1382858894,Nice View Lodge,node,guest_house,28.4122858,83.819155,Annapurna Rural Mun 11,node guest_house Annapurna Rural Mun 11
1382924926,Hotel Himal,node,guest_house,28.4281035,83.8294134,,node guest_house 
1382932111,Hinku Cave,node,yes,28.493107,83.8927034,,node yes 
1382933234,Shangrila Guest House and Restaurant,node,guest_house,28.497459,83.8982901,,node guest_house 
1382946119,Gurung Co-Operative Guest House and Restaurant,node,guest_house,28.526536,83.9076531,Annapurna Rural Mun 11,node guest_house Annapurna Rural Mun 11
1382951825,Mountain Discovery Lodge,node,guest_house,28.4104844,83.7901121,,node guest_house 
1382955651,Namo Buddha Guest-House,node,guest_house,28.4084202,83.7839431,,node guest_house 
1382957269,British Ex Gorkha Guest-House,node,guest_house,28.4077549,83.7800807,,node guest_house 
1382958772,Hill Side Lodge,node,guest_house,28.4063783,83.7764585,,node guest_house 
1382959636,Mountain Discovery Lodge,node,guest_house,28.4044724,83.7756056,,node guest_house 
1382964124,Tranquility Guest House & Restaurant,node,guest_house,28.3940456,83.7527427,,node guest_house 
1382965189,Sankar Hotel & Restaurant,node,guest_house,28.3942116,83.7490813,"Annapurna Rural Municipality, Ward No.8","node guest_house Annapurna Rural Municipality, Ward No.8"
1382972417,Deurali Yak Hotel,node,guest_house,28.3969009,83.728887,,node guest_house 
1382985497,Shikhar Guest House,node,guest_house,28.4001326,83.6995291,,node guest_house 
1383001005,Everest Homestay,node,guest_house,28.3754972,83.8084677,,node guest_house 
1383015212,Bikash Guest House,node,guest_house,28.3564884,83.804817,,node guest_house 
1383019293,Green Valley Lodge and Restaurant,node,hotel,28.3399959,83.8021037,"Annapurna Rural Municipality, Ward No. 11","node hotel Annapurna Rural Municipality, Ward No. 11"
1383023282,Anjuli Hotel & Restaurant,node,hotel,28.3316863,83.7977182,"Annapurna Rural Municipality, Ward No. 10","node hotel Annapurna Rural Municipality, Ward No. 10"
1383034124,TIMS Check Post,node,information,28.3086873,83.7749917,"Annapurna Rural Municipality, Ward No. 8","node information Annapurna Rural Municipality, Ward No. 8"
1383041989,NTNC/ACAP Tourist Checkpost,node,information,28.3095991,83.7752624,"Annapurna Rural Municipality, Ward No. 8","node information Annapurna Rural Municipality, Ward No. 8"
1383050310,Binti Lodge & Restaurant,node,hotel,28.2995557,83.7971315,"Annapurna Rural Municipality, Ward No.6","node hotel Annapurna Rural Municipality, Ward No.6"
1390371550,Radisson Hotel Kathmandu,node,hotel,27.7200685,85.3214693,Kathmandu,node hotel Kathmandu
1390376898,ACAP / TIMS Checkpost,node,information,28.108927,85.2894275,,node information 
1398437048,Nagarkot Tower,node,viewpoint,27.6921682,85.5199012,,node viewpoint 
1417964983,Tourist information center,node,information,27.5853558,85.5154264,,node information 
1418994798,Ananda Café and Guesthouse,node,guest_house,27.5850151,85.516988,,node guest_house 
1420156237,Panauti Museum,node,museum,27.5850092,85.5171306,,node museum 
1431996477,मुक्तिनाथ,node,attraction,28.8169164,83.8714547,,node attraction 
1461362183,Hotel Gorkha Bisauni,node,hotel,27.9959634,84.6251035,,node hotel 
1477827143,Hotel Yambu Kathmandu,node,hotel,27.7177674,85.3115829,,node hotel 
1485423759,Lalka Camp,node,information,28.3458808,83.9192263,,node information 
1489546013,Himalayan Villa,node,hotel,27.7227522,85.5265975,,node hotel 
1490108258,Chautari,node,hotel,27.7231618,85.526293,,node hotel 
1490108260,Stupa,node,hotel,27.7212938,85.5231311,,node hotel 
1492311483,Kongde View Lodge,node,guest_house,27.8043095,86.7106182,,node guest_house 
1492311485,Phakding Star Lodge,node,guest_house,27.7437656,86.7126396,,node guest_house 
1493239868,Nirvana,node,guest_house,27.7218292,85.5274073,,node guest_house 
1497927174,Rama,node,hotel,26.7353315,85.9319075,,node hotel 
1499860699,New Elephant Head,node,hotel,27.723186,85.5252479,,node hotel 
1500932986,Hillside,node,hotel,27.7294897,85.5251166,,node hotel 
1500932989,Unkai,node,hotel,27.7280818,85.5263905,,node hotel 
1502562675,Eco-Home,node,hotel,27.7226555,85.5247752,,node hotel 
1502562678,New Dragon,node,hotel,27.7225373,85.5247374,,node hotel 
1513673127,K. C.,node,guest_house,28.1000731,83.8716546,,node guest_house 
1513673136,Sherchan,node,guest_house,28.0992369,83.8714696,,node guest_house 
1513693555,Butterfly Lodge,node,hotel,28.2128021,83.9581343,,node hotel 
1527166789,Tiger Tops Tented Camp,node,camp_site,27.5270961,84.2241729,,node camp_site 
1527166847,Tiger Tops Jungle Lodge,node,hotel,27.5416948,84.1900766,,node hotel 
1534450701,Sapana Lodge,node,hotel,27.5897518,84.491939,,node hotel 
1537553863,Jungle Sunset hotel,node,hotel,27.5788472,84.4924548,,node hotel 
1548806648,OMS Home,node,hotel,28.7829258,83.7250904,,node hotel 
1548806657,Trekkers Inn,node,hotel,28.7828027,83.7248614,,node hotel 
1548806675,Sita Air,node,information,28.7827478,83.7247967,,node information 
1548806677,Hotel Mustang Monalisha,node,hotel,28.7826185,83.7247053,,node hotel 
1548806678,Hotel Lali Gurans,node,hotel,28.7827913,83.7245513,,node hotel 
1548806679,Hotel Majesty,node,hotel,28.7826009,83.7239849,,node hotel 
1548806691,Kali Gandaki Guesthouse,node,guest_house,28.7819455,83.7229065,,node guest_house 
1548806692,Hotel Snowland,node,hotel,28.7820142,83.7226185,,node hotel 
1548806693,Hotel Airport Inn,node,hotel,28.7818233,83.7224851,,node hotel 
1548806705,Hotel Tilicho,node,hotel,28.781213,83.7220039,,node hotel 
1548806706,Hotel Dreamland,node,hotel,28.781576,83.721964,,node hotel 
1548806714,Hotel Sakura,node,hotel,28.7809603,83.7216385,,node hotel 
1548806716,Hotel Mountain View,node,hotel,28.7823986,83.7241542,,node hotel 
1548806719,Hotel Mountain Breeze,node,hotel,28.7812206,83.7215852,,node hotel 
1548806728,Hotel Jomsom View,node,hotel,28.7838774,83.7281914,,node hotel 
1548806730,Jeep / Bus Ticket,node,information,28.7822586,83.7230256,,node information 
1548806741,Shagri La Air,node,information,28.7826059,83.7240431,,node information 
1548806742,Yeti / Tara Air,node,information,28.7826573,83.7247038,,node information 
1548806758,Hotel Windy Valley,node,hotel,28.7811298,83.7218785,,node hotel 
1548844040,Himalaya Hotel,node,hotel,28.6477115,84.105037,,node hotel 
1548844057,Gorkhali Hotel,node,hotel,28.6412936,84.1373107,,node hotel 
1548844058,Yak Ru Hotel,node,hotel,28.6411124,84.137622,,node hotel 
1548844068,Yak & Yeti Hotel,node,hotel,28.6161594,84.1527642,,node hotel 
1548844159,Munji Lodge & Bakery,node,guest_house,28.6501478,84.052466,,node guest_house 
1549107538,Hotel Manasulu View,node,hotel,28.5500233,84.2447708,,node hotel 
1549107550,Tibet Hotel,node,hotel,28.5522708,84.2419992,,node hotel 
1549117967,Manaslu Hotel,node,hotel,28.5452328,84.2887777,,node hotel 
1551705921,Hikers Guesthouse,node,guest_house,28.3962783,84.4062987,,node guest_house 
1551705924,Boomerang Hotel,node,hotel,28.3961862,84.406406,,node hotel 
1551705935,Sabina Guesthouse,node,guest_house,28.3819217,84.4028566,,node guest_house 
1551705936,Mongolian Guesthouse,node,guest_house,28.39671,84.4062209,,node guest_house 
1551717475,Tilicho Hotel,node,hotel,28.469041,84.37416,,node hotel 
1551725005,Tourist Check,node,information,28.5243038,84.3545222,,node information 
1551728657,Namala Hotel,node,hotel,28.5259367,84.3066512,,node hotel 
1551728663,Hotel Royal Garden,node,hotel,28.5272086,84.3049344,,node hotel 
1551728665,Prasanna Hotel,node,hotel,28.5264093,84.3060269,,node hotel 
1551745116,Haus Namaste,node,guest_house,27.7050453,85.2965534,,node guest_house 
1555308344,Chhetri Sisters Guesthouse,node,guest_house,28.2210258,83.9572916,,node guest_house 
1555308346,Lake City Hotel,node,hotel,28.2136366,83.9573939,,node hotel 
1555308355,Dharma Hotel,node,hotel,28.2048582,83.963816,,node hotel 
1563064660,Little Paradise,node,guest_house,28.3971831,83.8100278,,node guest_house 
1622172123,Kathmandu Peace Guest House;Tea & Souvenirs,node,hotel,27.7164834,85.3107886,,node hotel 
1656490102,Dhulikhel Lodge Resort,node,hotel,27.6218103,85.5549526,,node hotel 
1656777523,Forest Hideaway,node,hotel,28.4630462,81.247276,,node hotel 
1656837339,Eden Jungle Resort,node,hotel,27.5752776,84.5002433,,node hotel 
1656837342,Hotel Parkland,node,hotel,27.5768136,84.4987172,,node hotel 
1678310596,Green Valley Lodge,node,guest_house,27.9396495,86.7733956,,node guest_house 
1678311622,Gokyo Resort,node,guest_house,27.9538498,86.6946623,,node guest_house 
1679173380,Kongma La Pass,node,viewpoint,27.9297049,86.8362191,,node viewpoint 
1679173453,Cho La,node,viewpoint,27.9617246,86.7516374,,node viewpoint 
1679191775,Hotel Himalayan,node,guest_house,27.8354243,86.764536,,node guest_house 
1679191781,Khumbu Guest House,node,guest_house,27.8049822,86.7103073,,node guest_house 
1679203240,Dolakha Sherpa Guest House,node,guest_house,27.6366453,86.2310963,,node guest_house 
1679203258,View from Lamjura La,node,viewpoint,27.5786388,86.4980716,,node viewpoint 
1679203262,Nirvana Lodge,node,guest_house,27.7790177,86.7221372,,node guest_house 
1679203264,Buddha Lodge,node,guest_house,27.778211,86.7225597,,node guest_house 
1679203268,Sundup Guest House,node,guest_house,27.6144601,86.7149878,,node guest_house 
1679203275,Solikhumbu Guest House,node,guest_house,27.604725,86.709974,,node guest_house 
1679250325,Urban campsite,node,camp_site,28.3598695,83.9601797,,node camp_site 
1679250333,Chukhung Ri,node,viewpoint,27.9253341,86.8792024,,node viewpoint 
1679293467,Pillichon Hut (2760m),node,alpine_hut,28.3999275,83.9603871,,node alpine_hut 
1679293482,Cave - no water (2560m),node,camp_site,28.399937,83.9643434,,node camp_site 
1679293587,3 rooms GH,node,guest_house,28.3817208,83.9711562,,node guest_house 
1679293697,Pipar Karka,node,camp_site,28.4121485,83.9576752,,node camp_site 
1679345070,Mardi Himal Base Camp West,node,camp_site,28.4640906,83.9014771,,node camp_site 
1679345198,Samsur Deurali (2930m),node,camp_site,28.3908765,83.9356166,,node camp_site 
1680075250,Mardi Himal B.C. East,node,camp_site,28.4674067,83.9464501,,node camp_site 
1680076079,Korchon hut,node,alpine_hut,28.4048497,83.9295415,,node alpine_hut 
1691951158,兰巴拉,node,viewpoint,28.1072222,86.5877778,,node viewpoint 
1736446048,Robin's Nest,node,hotel,28.1638,84.109183,,node hotel 
1736450384,New peaceful guest house,node,hotel,28.3713658,83.8254315,,node hotel 
1736453202,New Panorama,node,hotel,28.497267,83.897867,,node hotel 
1736457253,Himalaya Guesthouse,node,hotel,28.4845982,83.8887789,,node hotel 
1736458295,Hotel Namaste and Restaurant,node,hotel,28.4090446,83.8243773,"Annapurna Rural Municipality, Ward No. 11","node hotel Annapurna Rural Municipality, Ward No. 11"
1736662522,Hill Top Lodge,node,hotel,28.4346455,83.8384902,,node hotel 
1736669828,Sinuwa Guesthouse,node,hotel,28.4356548,83.8384571,,node hotel 
1736683294,Green View,node,hotel,28.42835,83.826067,,node hotel 
1738640446,Annapurna Hotel,node,hotel,28.6415865,84.1375782,,node hotel 
1741836683,Map of Tiri,node,information,28.8502573,83.7832915,,node information 
1742495832,Hotel Manasulu & Restaurant,node,hotel,28.3403855,84.4068072,,node hotel 
1743186007,Snow Lion,node,hotel,28.8378233,83.7843578,,node hotel 
1743186041,Annapurna Lodge,node,hotel,28.8350016,83.7832118,,node hotel 
1743293834,Dhakpochhe Tashi-Ling Guesthouse,node,hotel,28.8281577,83.8562908,,node hotel 
1743294405,Jhong View Top Guest House and Restaurant,node,hotel,28.8273958,83.8545599,,node hotel 
1747929483,Hotel 360,node,hotel,28.4154973,83.8546246,,node hotel 
1747988955,Gautamas Cottage,node,guest_house,28.3840428,83.8738726,,node guest_house 
1748282927,Parena Guesthouse,node,guest_house,28.3225282,83.8914155,,node guest_house 
1781603403,Rupina-South Woodcamp,node,camp_site,28.325002,84.7312653,,node camp_site 
1781613791,Rupina-North,node,camp_site,28.3791224,84.722165,,node camp_site 
1781649659,Barpak,node,camp_site,28.2028314,84.7466039,,node camp_site 
1781649696,Rupina-South,node,camp_site,28.3468569,84.7317801,,node camp_site 
1782646676,Hotel Tilche,node,camp_site,28.5446809,84.3807859,,node camp_site 
1782646677,Mount Manaslu Lodge,node,guest_house,28.5874482,84.6415296,,node guest_house 
1783303872,Jyapu samaj,node,museum,27.6736999,85.3319528,,node museum 
1787042048,Hotel Goodwill,node,hotel,27.6671066,85.3266081,,node hotel 
1810054566,Kharsang Guest House,node,guest_house,27.7118852,85.3099428,,node guest_house 
1833834799,Hotel Arniko,node,hotel,27.6267054,85.5389471,,node hotel 
1833834940,Panorama View Hotel,node,motel,27.6115583,85.5705611,,node motel 
1833834964,Silk Road,node,hotel,27.627655,85.53845,,node hotel 
1833841880,Chandeshwori view-tower,node,viewpoint,27.6339614,85.5404017,,node viewpoint 
1839678362,Khushi Khushi Hotel,node,hotel,27.6737123,85.244015,,node hotel 
1849461252,Tourist Ticket Counter,node,information,27.6780755,85.3212099,,node information 
1858151612,Lalit Bhojanalaya,node,hotel,27.678669,85.3211318,,node hotel 
1875597201,Royal Mahendra Museum,node,museum,27.7041214,85.3077624,,node museum 
1890719593,Mera Peak Lodge,node,guest_house,27.5785993,86.7821965,,node guest_house 
1890719595,Namaste Lodge,node,guest_house,27.569281,86.7986722,,node guest_house 
1890719849,Sherpa Lodge,node,guest_house,27.5689557,86.799819,,node guest_house 
1891343758,Vibor Hotel,node,hotel,27.7318305,85.3439742,काठमाडौं,node hotel काठमाडौं
1892710734,Subekchya Hostel,node,hostel,27.6875866,85.333969,,node hostel 
1892797771,Frienship hostel,node,hostel,27.6743624,85.3078988,,node hostel 
1894221617,Buddha Air,node,information,27.6735804,85.3140609,,node information 
1898833363,Braka Guset House,node,hotel,28.9138463,83.8196619,,node hotel 
1900916895,Hotel Himali,node,hotel,28.9610143,83.8008373,,node hotel 
1902458720,Hotel Annapurna,node,hotel,28.9616501,83.8014893,,node hotel 
1904311761,Third world guest house,node,guest_house,27.6735507,85.3247289,,node guest_house 
1904386953,Newa Youth Organisation,node,information,27.6752275,85.3194124,,node information 
1905155349,Hotel Karnali,node,hotel,27.7398257,85.3379978,,node hotel 
1905315222,Nac express global freight and logistics,node,information,27.6996957,85.3214436,,node information 
1905355648,Sunrise Boys Hostel,node,hostel,27.7023989,85.3230965,,node hostel 
1905360349,Nepal china society,node,information,27.7022639,85.3242197,,node information 
1905361404,Swastika girls hostel,node,hostel,27.7021804,85.3243281,,node hostel 
1905364823,Subha laxmi hostel pvt ltd,node,hostel,27.7018275,85.3247577,,node hostel 
1905365414,Valley boys hostel,node,hostel,27.7024809,85.3249056,,node hostel 
1905371596,Happy Girls and Boys Hostel,node,hostel,27.7015087,85.3230729,,node hostel 
1905413625,Zaite Jamyang,node,hotel,29.0274203,83.848446,,node hotel 
1908809972,Hotel Roayal Mustang,node,hotel,29.0633425,83.8730512,,node hotel 
1908809979,Lo Ghami Guest House,node,hotel,29.0614748,83.8716222,,node hotel 
1910207708,Namaste Lodge,node,guest_house,27.569281,86.7986722,,node guest_house 
1910208977,Sherpa Lodge,node,guest_house,27.5689557,86.799819,,node guest_house 
1910209004,View to Karelung,node,viewpoint,27.5836003,86.7512101,,node viewpoint 
1910209009,Viewpoint near Surki La,node,viewpoint,27.5658197,86.810093,,node viewpoint 
1910316339,Kailas Hotel,node,hotel,29.0940623,83.9294626,,node hotel 
1910369272,Tenzin Riverside Guset House,node,hotel,29.0868575,83.8794503,,node hotel 
1927152461,Annapurna Lodge,node,alpine_hut,27.407402,87.1147428,,node alpine_hut 
1927152480,Kirat Lodge,node,alpine_hut,27.4033968,87.0653411,,node alpine_hut 
1927153199,View to Arun River,node,viewpoint,27.4011159,87.1207833,,node viewpoint 
1927629825,Desire Boys Hostel,node,hostel,27.6826542,85.3436206,,node hostel 
1927629840,Om Shanti Boys Hostel,node,hostel,27.6820567,85.3434662,,node hostel 
1927629847,Surakchya Girls Hostel,node,hostel,27.6827679,85.3436602,,node hostel 
1929099889,Arun Lodge,node,alpine_hut,27.4647111,86.8847534,,node alpine_hut 
1929099891,Irkuwa Lodge,node,alpine_hut,27.4065486,86.9785349,,node alpine_hut 
1929099911,Sherpa Lodge,node,alpine_hut,27.406508,86.9787475,,node alpine_hut 
1929099915,Sherpa Lodge,node,alpine_hut,27.4085864,86.9711133,,node alpine_hut 
1929099918,Sonam Hotel,node,hostel,27.4128375,86.9650118,,node hostel 
1929142834,Pumori Lodge,node,alpine_hut,27.5131587,86.8313536,,node alpine_hut 
1929142836,Sagarmatha Lodge,node,alpine_hut,27.5110737,86.8387285,,node alpine_hut 
1930937904,Lodges,node,alpine_hut,27.3263962,87.1949614,,node alpine_hut 
1930991949,Infomap,node,information,27.5875927,86.6041567,,node information 
1930991962,Lodges,node,guest_house,27.5945826,86.6203122,,node guest_house 
1930991968,Taksindu Lodge,node,guest_house,27.5941719,86.6209175,,node guest_house 
1932766562,Lodge,node,guest_house,27.5825253,86.3299952,,node guest_house 
1932766564,Viewpoint from Deurali Pass,node,viewpoint,27.5817429,86.3301599,,node viewpoint 
1932779681,Lodge,node,guest_house,27.6079011,86.2948208,,node guest_house 
1932779683,Lodge,node,guest_house,27.608805,86.295896,,node guest_house 
1936280991,Jyapu Niwas,node,attraction,27.6825671,85.3350586,,node attraction 
1936280996,Maa's Boys Hostel,node,hostel,27.6823916,85.3360187,,node hostel 
1936281022,Smarika Girls Hostel,node,hostel,27.6834129,85.3343727,,node hostel 
1937661896,Hotel Red Rooster,node,hotel,27.6711876,85.3161505,,node hotel 
1937673114,Swiss Agency for Development and cooperation SDC,node,information,27.6705193,85.3170938,,node information 
1937684815,Caribbean College Boys Hostel,node,hostel,27.6676324,85.31601,,node hostel 
1937688848,Namaste Ladies Hostel,node,hostel,27.6680586,85.3164844,,node hostel 
1937702054,Fabulous Handicraft Pvt Ltd,node,artwork,27.6684012,85.3189664,,node artwork 
1937718459,Lotus Hostel,node,hostel,27.6728739,85.3167712,,node hostel 
1937718529,Sarojini Girls Home,node,hostel,27.6738166,85.3158226,,node hostel 
1942507475,Lion statue,node,attraction,27.6721039,85.42898,,node attraction 
1956285190,Ambassador Hotel,node,hotel,27.718987,85.3176166,Kathmandu,node hotel Kathmandu
1956360568,Hotel Encounter Nepal,node,hotel,27.7187025,85.3121722,,node hotel 
1958052191,Hotel Madhuwan,node,hotel,28.0389561,82.4902375,,node hotel 
1958052217,Hotel Green Valley,node,hotel,28.039154,82.4886302,,node hotel 
1958151026,Hotel Paradise Place,node,hotel,27.8768098,82.5136693,,node hotel 
1959686217,Kharpani hot springs,node,hotel,28.3600439,83.9589949,,node hotel 
1960276756,Red Karpet,node,hotel,27.6913845,84.4258888,,node hotel 
1962379599,G-Cafe,node,hotel,27.7203592,85.3634774,,node hotel 
1963991187,Hotel The Lord Asia,node,hotel,27.7189666,85.3150006,,node hotel 
1963991189,Pacific Guest House,node,guest_house,27.7186255,85.3154271,,node guest_house 
1966018536,रानीबन,node,viewpoint,27.7452108,85.2668796,,node viewpoint 
1967824804,Hotel Lapha,node,hotel,27.7190801,85.3148919,,node hotel 
1973758131,KEEP Kathmandu Enviromental Education Project (4th floor),node,information,27.7132638,85.3129699,,node information 
1977485212,Holy Temple Tree,node,hotel,27.7187576,85.3117251,,node hotel 
1977487467,Mero Hotel Eco Home,node,guest_house,27.7188807,85.31008,,node guest_house 
1979816718,Blue Heaven Guesthouse,node,hotel,28.2064597,83.9634769,,node hotel 
1980951505,Sunset Manalu Lodge,node,hotel,28.1947705,84.1585463,,node hotel 
1981574921,Nirvana Luxury International Pvt.Ltd.,node,hotel,27.5011219,83.4485377,,node hotel 
1981962384,Himalaya Lodge,node,hotel,28.1549372,84.1547822,,node hotel 
1982425178,View Point Guest House and Sekuwa Corner,node,guest_house,27.7329786,85.3131147,,node guest_house 
1997498274,Lain Odar,node,camp_site,28.9300315,83.0432132,,node camp_site 
2004555534,Lodge,node,guest_house,28.6861107,83.6148057,,node guest_house 
2004555538,Lodge,node,guest_house,28.6866842,83.6143628,,node guest_house 
2007681299,Giant Hotel Pvt. Ltd.,node,hotel,27.7192665,85.3253791,Kathmandu,node hotel Kathmandu
2007705429,Adventure South Asia Tours and Travel,node,information,27.7197929,85.3259724,Kathmandu,node information Kathmandu
2019344035,Hotel Annapurna Mountain View,node,hotel,27.8254036,85.4484663,,node hotel 
2019345655,Hotel Trekkers paradise and Mountain View Restaurant,node,hotel,27.8295197,85.4486129,,node hotel 
2019359183,Shivapuri Cottage Restaurant and Hotel,node,guest_house,27.7744443,85.4909224,,node guest_house 
2021274659,Hotel Ananda Inn,node,hotel,27.4693461,83.2843204,,node hotel 
2027884201,Siddharth Boys Hostel,node,hostel,27.6911084,85.3306021,,node hostel 
2027886616,Hong Xiang Hotel,node,hotel,27.6915546,85.3297054,,node hotel 
2027892156,Everest Girls Hostel,node,hostel,27.6909151,85.3292006,,node hostel 
2031401962,Paradise Girls Hostel,node,hostel,27.6941737,85.3338319,,node hostel 
2037759761,Hotel OSeen,node,hotel,26.5688225,88.0754496,,node hotel 
2037761579,Mahendra Park,node,theme_park,26.5686174,88.0713636,,node theme_park 
2041489293,White house,node,viewpoint,27.6516305,85.2686792,,node viewpoint 
2041594257,Nomad Hotel,node,hotel,27.7201227,85.3205414,,node hotel 
2049740413,Yala Art Gallery,node,artwork,27.6756305,85.3179114,,node artwork 
2054039408,Club Himalaya,node,hotel,27.7164815,85.5207447,,node hotel 
2054092038,कैलाशनाथ महादेव मूर्ति / Kailashnath Mahadev Statue,node,attraction,27.6461439,85.474109,,node attraction 
2060240290,Statue of Sleeping Narayan,node,attraction,27.6765998,85.4312982,,node attraction 
2075945363,The BABU Adventures HQ,node,guest_house,28.0212156,83.7452429,,node guest_house 
2083711641,Durbar Square Ticket Counter,node,information,27.7037131,85.3090149,,node information 
2087062151,Global Inn,node,hotel,28.2082905,83.9597651,,node hotel 
2087062207,Four Seasons,node,hotel,28.208399,83.9594651,,node hotel 
2087062504,Holy Heaven,node,hotel,28.2083702,83.9593222,,node hotel 
2088245265,Prithivi Narayan Shah,node,artwork,27.6984614,85.3216035,,node artwork 
2090627606,Dream Garden Inn,node,guest_house,27.7194538,85.3223481,,node guest_house 
2090779308,Unique Girls Hostel,node,hostel,27.7188548,85.3256329,,node hostel 
2102493165,Kantipur Girls Hostel,node,hostel,27.6911916,85.3411924,,node hostel 
2121857936,Madhuban Guest House,node,hotel,27.7127363,85.3088408,,node hotel 
2127144884,Hotel River Holiday Inn,node,hotel,27.7212679,85.308377,,node hotel 
2127175017,International Guest House,node,hotel,27.7158231,85.3079519,,node hotel 
2127195666,Tukuche Thakali Resturent,node,hotel,27.7215417,85.31316,,node hotel 
2127290161,Hotel Metropolitant Kantipur,node,hotel,27.7152439,85.3084003,,node hotel 
2128617502,internal tax office,node,information,27.680213,85.3153113,,node information 
2129292034,suryabinayak boys hostel,node,hostel,27.687732,85.3172182,,node hostel 
2139797790,Sangam Hotel,node,hotel,28.201024,83.9714593,,node hotel 
2139849365,NRB guest house,node,hostel,28.2006401,83.9711873,,node hostel 
2141568813,raniban micro park,node,caravan_site,27.7366929,85.2817315,,node caravan_site 
2142193501,Hotel Holiday Pokhara,node,hotel,28.1990878,83.9700808,,node hotel 
2142193505,Hotel K.C.,node,hotel,28.196854,83.9696009,,node hotel 
2142193507,Hotel Nature Land,node,hotel,28.1997781,83.9705967,,node hotel 
2142193509,Jharana Hotel,node,hotel,28.1967182,83.9695695,,node hotel 
2142193510,Monalisa Hotel,node,hotel,28.1966266,83.9695357,,node hotel 
2155537712,Hotel Sonam,node,hotel,26.8955021,88.068485,,node hotel 
2155541794,Hotel Shikher,node,hotel,26.8948586,88.0706199,,node hotel 
2155543166,Hotel Bishal,node,hotel,26.8952031,88.0692493,,node hotel 
2155543690,Hotel Dawa,node,hotel,26.8954423,88.0679485,,node hotel 
2162934737,Safal Boys Hostel,node,hostel,27.7028306,85.3247662,,node hostel 
2162935504,Zenith Girls Hostel,node,hostel,27.7028364,85.3244484,,node hostel 
2164777836,Statue of Tribhuwan,node,artwork,27.6899272,85.2208932,,node artwork 
2164874168,Narayanhiti Palace Museum,node,museum,27.7148956,85.3181031,Kathmandu,node museum Kathmandu
2172675224,Tanhaun Langhali Guest House,node,guest_house,27.7370509,85.309452,,node guest_house 
2174521356,Kanya Girls Hostel,node,hostel,27.6945778,85.3376328,,node hostel 
2174537879,Kanya Girls Hostel,node,hostel,27.6945068,85.3377819,,node hostel 
2183344626,Nilbarahi Picnic spot,node,picnic_site,27.6951871,85.3960129,,node picnic_site 
2194049163,Mirabel Deluxe Blocks,node,hotel,27.6229135,85.5536163,,node hotel 
2194053126,"mirabel resort, dhulikhel",node,hotel,27.6232542,85.5529839,,node hotel 
2194114008,rajendra,node,hotel,27.630099,85.5222354,,node hotel 
2201357868,Regional Musium,node,museum,28.596175,81.6243081,,node museum 
2201363918,siraha lodge,node,motel,27.7063244,85.3443706,,node motel 
2218658280,3Monkeys Backpacker's Hostel,node,guest_house,27.7140886,85.2846733,Kathmandu,node guest_house Kathmandu
2218694133,Lumbini Hokke Hotel,node,hotel,27.4935237,83.2791097,Lumbini,node hotel Lumbini
2218694134,Lumbini Museum,node,museum,27.4891462,83.2769853,,node museum 
2218751688,Ashoka,node,guest_house,27.4702634,83.2845789,,node guest_house 
2218751694,Lotus Lodge,node,guest_house,27.4701825,83.2849578,,node guest_house 
2218751697,Lumbini Garden Lodge,node,guest_house,27.4704383,83.284466,,node guest_house 
2218751704,Lumbini Guest House,node,guest_house,27.470271,83.2847583,,node guest_house 
2218751705,Lumbini Peace Lodge,node,guest_house,27.4702722,83.2845072,,node guest_house 
2218751706,Lumbini Village Lodge,node,guest_house,27.4703753,83.2849571,,node guest_house 
2218751709,Manakamana Lodge,node,guest_house,27.4704423,83.2844345,,node guest_house 
2218751716,Paradise,node,guest_house,27.4696911,83.2868892,,node guest_house 
2218751719,Rahul Guest House,node,guest_house,27.4704055,83.2847215,,node guest_house 
2218751721,Royal Guest House,node,guest_house,27.4700761,83.2855954,,node guest_house 
2218751724,Tanahu Lodge,node,guest_house,27.4702569,83.2857648,,node guest_house 
2230569085,पाटन दरवार क्षेत्र,node,attraction,27.6733988,85.3250562,,node attraction 
2252555873,Amadablam Lodge,node,guest_house,27.8230337,86.7309701,,node guest_house 
2252555890,Cheaurdung Lodge,node,guest_house,27.61235,86.2724,,node guest_house 
2252555898,Cho-Oyu View Lodge,node,guest_house,27.9537,86.69366,,node guest_house 
2252555904,Everest View Lodge,node,guest_house,27.56346,86.57627,,node guest_house 
2252555918,Green Village Lodge,node,guest_house,27.7385,86.71165,,node guest_house 
2252555921,Hill Top Lodge,node,guest_house,27.6524456,86.7150974,,node guest_house 
2252555924,Hilltop View Lodge,node,guest_house,27.7024482,86.7172732,,node guest_house 
2252555957,खुम्बी ल्हा भीयिउ लोज,node,guest_house,27.6535803,86.7117187,,node guest_house 
2252555963,खुम्बु भीयिउ लोज,node,guest_house,27.7103159,86.7145843,,node guest_house 
2252555985,Mountain View Lodge,node,guest_house,27.59352,86.62244,,node guest_house 
2252555994,Namaste Lodge,node,guest_house,27.6722181,86.7192787,,node guest_house 
2252556018,Royal Sherpa Lodge,node,guest_house,27.73881,86.71177,,node guest_house 
2252556022,See You Lodge,node,guest_house,27.7383841,86.7117272,,node guest_house 
2252556054,Snowland Lodge,node,guest_house,27.7389688,86.7121037,,node guest_house 
2252556065,Suman Lodge,node,guest_house,27.5749216,86.5179353,,node guest_house 
2252556077,Tashi Deleck Lodge,node,guest_house,27.83554,86.7646818,,node guest_house 
2252556095,Thamserku Lodge,node,guest_house,27.82325,86.7309001,,node guest_house 
2253944909,Maya Devi Guest House,node,hotel,27.4703837,83.284442,,node hotel 
2254050236,Eastern Gate,node,attraction,27.5760372,83.0567677,,node attraction 
2254123783,Suddhodana's Palace,node,attraction,27.5761932,83.0558704,,node attraction 
2254123785,Western Gate,node,attraction,27.5766926,83.0548083,,node attraction 
2262423357,Lami Dada,node,guest_house,27.5532,85.3647169,,node guest_house 
2273402154,Bashyal Hotel,node,hotel,27.8262638,83.5699936,,node hotel 
2276471383,Norwegian House,node,guest_house,27.6702548,85.3119282,,node guest_house 
2291204199,Fast Food Lodge and Restaurant,node,guest_house,28.2998281,83.7693639,,node guest_house 
2291204201,Green View Lodge and Restaurant,node,guest_house,28.32397,83.7920596,"Annapurna Rural Municipality, Ward No. 10","node guest_house Annapurna Rural Municipality, Ward No. 10"
2291204203,Hotel Everest Lodge and Restaurant,node,guest_house,28.309075,83.7753348,"Annapurna Rural Municipality, Ward No. 8","node guest_house Annapurna Rural Municipality, Ward No. 8"
2291204204,Hotel Mountain Lodge and Restaurant,node,guest_house,28.3087343,83.7750367,"Annapurna Rural Municipality, Ward No. 8","node guest_house Annapurna Rural Municipality, Ward No. 8"
2291204205,Kimche Guest House and Restaurant,node,guest_house,28.355914,83.804659,"Annapurna Rural Municipality, Ward No. 10","node guest_house Annapurna Rural Municipality, Ward No. 10"
2291204207,Kimrong View,node,guest_house,28.4060547,83.7955699,,node guest_house 
2291204208,Kliu Guest House and Restaurant,node,guest_house,28.3447556,83.8028862,"Annapurna Rural Municipality, Ward No. 10","node guest_house Annapurna Rural Municipality, Ward No. 10"
2291204210,Moonlight Hotel,node,guest_house,28.3088135,83.7751991,"Annapurna Rural Municipality, Ward No. 8","node guest_house Annapurna Rural Municipality, Ward No. 8"
2291204212,Namaste Guest House and Restaurant,node,guest_house,28.3446842,83.8034106,"Annapurna Rural Municipality, Ward No. 10","node guest_house Annapurna Rural Municipality, Ward No. 10"
2291204213,New River View Lodge and Restaurant,node,guest_house,28.3097206,83.7752805,"Annapurna Rural Municipality, Ward No. 8","node guest_house Annapurna Rural Municipality, Ward No. 8"
2291204214,Riverside Lodge and Restaurant,node,guest_house,28.3095942,83.7749799,"Annapurna Rural Municipality, Ward No. 8","node guest_house Annapurna Rural Municipality, Ward No. 8"
2291204215,Shining River Guest House and Restaurant,node,guest_house,28.3454672,83.804127,"Annapurna Rural Municipality, Ward No. 10","node guest_house Annapurna Rural Municipality, Ward No. 10"
2291204217,Srijana Guest House,node,guest_house,28.3525014,83.8045934,,node guest_house 
2291204219,The Lakshmi Lodge,node,guest_house,28.3097239,83.7753782,"Annapurna Rural Municipality, Ward No. 8","node guest_house Annapurna Rural Municipality, Ward No. 8"
2299775156,Sushila Lodge,node,guest_house,27.6034,86.3070626,,node guest_house 
2299775157,Thodung Sherpa,node,guest_house,27.5951375,86.3160748,,node guest_house 
2299775161,Sunny,node,guest_house,27.5777882,86.3426984,,node guest_house 
2299775162,Baudhasherpa,node,guest_house,27.5765163,86.3447825,,node guest_house 
2299775171,Uma Kund,node,guest_house,27.5847325,86.401817,,node guest_house 
2299775210,Solukhumbu,node,guest_house,27.5801323,86.3375218,,node guest_house 
2318449855,Jungle Resort Hotel,node,hotel,27.5825038,84.4888158,,node hotel 
2318482509,Butterfly Hotel,node,hotel,27.5744339,84.4983694,,node hotel 
2321752889,The Pokhara United,node,hotel,28.2148888,83.961346,,node hotel 
2322395786,Hotel Taj Mahal,node,alpine_hut,28.0571107,85.4583335,,node alpine_hut 
2322395801,Hotel Thasi Delek,node,hotel,28.0135807,85.4926478,,node hotel 
2322395803,Lama Guest House,node,guest_house,27.9804638,85.4855228,,node guest_house 
2322395806,Mendo Hotel,node,alpine_hut,28.0347089,85.4813188,,node alpine_hut 
2322653070,Yak Hotel & Guest House,node,guest_house,27.9302086,85.4848008,,node guest_house 
2322653072,Mountain View Lodge & Resort,node,hotel,27.9276306,85.4864637,,node hotel 
2322653073,Hotel Namaste,node,guest_house,27.9314647,85.4842286,,node guest_house 
2322653074,Tashi Delek Hotel,node,hotel,27.8939468,85.476247,,node hotel 
2322653075,Thodong Lama Lodge,node,guest_house,27.8936384,85.476527,,node guest_house 
2324993815,Hotel B.B.C.,node,hotel,27.8252716,85.4484989,,node hotel 
2324993816,Hotel Lama,node,hotel,27.8427703,85.4554633,,node hotel 
2324993817,Hotel Karma and Restaurant,node,guest_house,27.7724854,85.4280623,,node guest_house 
2330252356,Hotel Panauti,node,guest_house,27.5847077,85.5141055,,node guest_house 
2365593755,Pharping View Point,node,viewpoint,27.6123823,85.2880902,,node viewpoint 
2406134868,Hotel Vidya,node,hotel,28.7047694,80.5818351,,node hotel 
2409513260,Hotel Holy Himalaya,node,hotel,27.714803,85.3097998,,node hotel 
2429043990,Xanadu Homes,node,hotel,28.7821648,83.7231293,,node hotel 
2447943865,Hotel Friends Home,node,hotel,27.7115298,85.3131298,Kathmandu,node hotel Kathmandu
2456662953,Global Hotel Reception,node,hotel,27.6816845,84.43113,,node hotel 
2468977397,Swarnim Sadan,node,hostel,28.2073491,83.9807647,,node hostel 
2469797444,Peace Dragon Lodge,node,hotel,28.2002426,83.9474238,,node hotel 
2470947626,Nature's Grace Lodge,node,hotel,28.212777,83.9588803,,node hotel 
2476613537,Gharme Dada View Point,node,viewpoint,28.272368,83.9722727,,node viewpoint 
2494131940,Ringmo,node,camp_site,29.1732893,82.9367895,,node camp_site 
2497769799,Shyanta,node,camp_site,29.040886,82.9041063,,node camp_site 
2497827103,Cave Camp,node,camp_site,29.2803685,82.9273526,,node camp_site 
2498287915,Shamjhana Hotel,node,hotel,27.023155,84.8840672,Birgunj,node hotel Birgunj
2498752193,Shepherds Campground,node,camp_site,29.1663534,82.7232919,,node camp_site 
2498752243,chauri kharka,node,camp_site,29.1766937,82.541718,,node camp_site 
2508829423,Trinity Guest House,node,guest_house,27.6777028,85.3127821,,node guest_house 
2524975098,Sunrise Lodge,node,guest_house,27.6891653,86.7302195,,node guest_house 
2553998757,Small Star Hotel,node,hotel,28.1617207,85.3365215,,node hotel 
2554628225,Moon Light Guest House,node,guest_house,28.1587052,85.4225892,,node guest_house 
2559586973,Bhattarai Hotel and Lodge,node,hotel,27.4002102,87.7527927,,node hotel 
2559586976,Bista Hotel and Lodge,node,hotel,27.3636111,87.7248611,,node hotel 
2559586977,Bolodada Hotel and Lodge,node,hotel,27.4093333,87.7569444,,node hotel 
2559586978,Cafleparti Hotel and Lodge,node,hotel,27.4037778,87.7550833,,node hotel 
2559586979,Deurali Hotel and Lodge,node,hotel,27.3635556,87.7247778,,node hotel 
2559586980,Didibahini Hotel and Lodge,node,hotel,27.4040325,87.7551584,,node hotel 
2559586981,Guras Hotel and Lodge,node,hotel,27.4158056,87.7615,,node hotel 
2559586982,Hotel Central,node,hotel,27.3572436,87.672251,,node hotel 
2559586983,Hotel Everest view and Lodge,node,hotel,27.3513889,87.6949167,,node hotel 
2559586984,Hotel Kanchanjungha and Lodge,node,hotel,27.3514561,87.6949836,,node hotel 
2559586985,Hotel Om Rai,node,hotel,27.3522778,87.6966944,,node hotel 
2559586986,Hotel PhawaKhola and Lodge,node,hotel,27.3510833,87.6940278,,node hotel 
2559586987,Hotel Sakira and Lodge,node,hotel,27.3530283,87.6867777,,node hotel 
2559586988,Hotel Suketar and lodge,node,hotel,27.3522222,87.6958611,,node hotel 
2559586989,Hotel oktang and Lodge,node,hotel,27.3515,87.6949444,,node hotel 
2559586990,Jhapali Hotel and Lodge,node,hotel,27.4148611,87.7612778,,node hotel 
2559586991,Kalpana Hotel and Lodge,node,hotel,27.3636667,87.7251389,,node hotel 
2559586992,Kanchanjungha Hotel and Lodge,node,hotel,27.3636111,87.7248889,,node hotel 
2559586993,Kanchanjungha Hotel and Lodge,node,hotel,27.416,87.7616111,,node hotel 
2559586994,Kanchhi Devi Hotel and Lodge,node,hotel,27.4151667,87.7614167,,node hotel 
2559586995,Karki Hotel and Lodge,node,hotel,27.384493,87.7483196,,node hotel 
2559586996,Karuna Karan Hotel and Lodge,node,hotel,27.4127539,87.7595692,,node hotel 
2559586997,Kirat Fastfood  Hotel and Lodge,node,hotel,27.4153611,87.7614444,,node hotel 
2559586998,Lila Hotel and Lodge,node,hotel,27.3636389,87.7249167,,node hotel 
2559586999,MNPT Guest House,node,guest_house,27.3573972,87.6724132,,node guest_house 
2559587000,MataBhattarai Hotel and Lodge,node,hotel,27.400351,87.7527596,,node hotel 
2559587001,Morang Hotel and Lodge,node,hotel,27.3793889,87.7390278,,node hotel 
2559587002,Mukumlung Hotel and Lodge,node,hotel,27.3993444,87.7527217,,node hotel 
2559587003,Munal Hoteland Lodge,node,hotel,27.3512778,87.6938056,,node hotel 
2559587004,Pancha Kanya Kalika Hotel and Lodge,node,hotel,27.4156944,87.7614722,,node hotel 
2559587005,Panchthar Hotel and Lodge,node,hotel,27.403858,87.7550994,,node hotel 
2559587008,Pathivara Himali Hotel and Lodge,node,hotel,27.4150556,87.7614444,,node hotel 
2559587009,Pathivara Hotel and Lodge,node,hotel,27.4158889,87.7616389,,node hotel 
2559587010,Pathivara Kalika Hotel and Lodge,node,hotel,27.4160556,87.7616389,,node hotel 
2559587011,Pathivara Kamal Bhattarai Hotel and Lodge,node,hotel,27.4149444,87.7613889,,node hotel 
2559587013,Pathivara Mata Hotel,node,hotel,27.3521667,87.6958056,,node hotel 
2559587016,Purbeli Yogesh BhattaraiHotel and Lodge,node,hotel,27.4007447,87.7528913,,node hotel 
2559587019,Resort Om Rai (Kastiri Niwas),node,hotel,27.3526667,87.7049444,,node hotel 
2559587023,Sewaro Hotel and Lodge,node,hotel,27.3792778,87.7391111,,node hotel 
2559587027,SoluKhumbu Hotel and Momo center,node,hotel,27.3519444,87.6954167,,node hotel 
2559587031,Hotel Pathibhara,node,guest_house,27.3549978,87.6691003,Taplejung,node guest_house Taplejung
2559587037,Taplejung Phungling Hotel and Lodge,node,hotel,27.4095762,87.7570037,,node hotel 
2559587044,Tiwari Hotel and Lodge,node,hotel,27.3512778,87.6938056,,node hotel 
2559587051,Utam Samjana Hotel and Lodge,node,hotel,27.3793056,87.7391111,,node hotel 
2584801150,WhiteHouse Hostel,node,hostel,27.655908,85.3309951,,node hostel 
2586430889,Friends Hotel,node,hotel,26.9114355,87.9259993,,node hotel 
2586543331,Sharmali Guest House,node,guest_house,29.3618674,80.3280628,,node guest_house 
2589430938,Hotel Red Planet,node,hotel,27.7156337,85.3106742,,node hotel 
2642605366,Yak Hotel,node,hotel,28.6653453,84.023636,,node hotel 
2642605373,Gangapurna Hotel Lodge,node,hotel,28.6655898,84.0233723,,node hotel 
2643158051,Hotel Gajurmukhi Resturant and Lodge,node,hotel,27.0314337,87.3132283,,node hotel 
2643282391,Urvashi Hotel and Lodge,node,hotel,27.3159513,87.1972243,,node hotel 
2647820091,Himalayan View Lodge & Restaurant,node,guest_house,28.4012393,83.6971479,,node guest_house 
2679535324,Makalu Base Camp,node,camp_site,27.8353373,87.0760664,,node camp_site 
2684761893,Saligram Apartment Hotel,node,hotel,27.6711266,85.3117355,,node hotel 
2684779410,Lumbini Tanduri Bhojanalaya,node,hotel,27.6718435,85.3123195,,node hotel 
2696863149,Vagabond Guest House,node,hotel,28.2058922,83.9621953,,node hotel 
2712435725,Indiri Lodge,node,guest_house,27.0318446,88.0357059,,node guest_house 
2727074624,Kathmandu View Hotel,node,hotel,27.7162148,85.3060982,,node hotel 
2756093514,Hotel Tashi Dhelek,node,hotel,27.7028491,85.3182462,,node hotel 
2772174643,mont blanc,node,guest_house,28.4134798,84.4069432,,node guest_house 
2794682012,Rhythms of Life,node,artwork,28.7907763,83.7402205,,node artwork 
2794682013,Labyrinth,node,artwork,28.7907783,83.7381714,,node artwork 
2802889552,Nepal India Girl's hostel,node,hostel,26.5312265,86.7492287,,node hostel 
2803318209,"Deep Shajan Hotel & Lage Rajbiraj,Saptari",node,hotel,26.5401994,86.7491989,rajbiraj,node hotel rajbiraj
2803318210,Star Hotel,node,hotel,26.5405173,86.7487164,,node hotel 
2805405541,Trekkers Holiday Holtel,node,hotel,28.5500421,84.2446328,,node hotel 
2805511688,Folk Nepal,node,artwork,27.7194926,85.3182559,,node artwork 
2805515684,Paradise Guest House,node,guest_house,28.7522564,83.6861496,,node guest_house 
2805523029,Hotel Mount Kailash,node,hotel,28.6157566,84.1535802,,node hotel 
2805524444,See You Lodge,node,guest_house,28.6414874,83.5990857,,node guest_house 
2805529702,Hotel Churi Lattar,node,hotel,28.7391264,83.972946,,node hotel 
2805530719,Puskar Hotel,node,hotel,27.7001597,85.3332123,,node hotel 
2805530765,Hotel Tashi Dhelek,node,hotel,27.713559,85.3108901,,node hotel 
2805530883,Yak Hotel,node,alpine_hut,28.7176175,83.9760464,,node alpine_hut 
2805532704,Himalyan Hotel,node,alpine_hut,28.7278674,83.9706676,,node alpine_hut 
2805533096,Yakawa Thorung Guesthouse,node,guest_house,28.7870555,83.9580338,,node guest_house 
2805605921,Deep Shajan Hotel & Lodge,node,hotel,26.5401446,86.7491942,rajbiraj,node hotel rajbiraj
2805614403,New Sagar Hotel & Lo,node,hotel,26.540251,86.7489825,rajbiraj,node hotel rajbiraj
2807805431,Arje Coffee Cooperative Office,node,information,28.1705478,83.166422,,node information 
2807805450,Himalaya ViewPoint Arkhaban Hill,node,viewpoint,28.2173392,83.1143546,,node viewpoint 
2807805451,Hotel Arkhaban,node,hotel,28.2170046,83.1215617,,node hotel 
2807805452,Hotel Majeri,node,hotel,28.0714187,83.2476448,,node hotel 
2807805486,Phulbari Hotel Laxmi,node,hotel,28.1596115,83.1464686,,node hotel 
2820387330,Hotel Maruti,node,hotel,26.7125718,86.4789775,,node hotel 
2820387342,Sainik Hotel,node,hotel,26.8098559,86.2901312,,node hotel 
2851960550,Mountain Ridge Bandipur,node,hotel,27.9399474,84.4045617,Bandipur,node hotel Bandipur
2852782177,The City Museum Kathmandu,node,museum,27.7110138,85.3182587,,node museum 
2852823421,Small Star Guest House & Grocery,node,guest_house,28.1763111,85.3589785,,node guest_house 
2852823423,Potala Guest House & Restaurant,node,guest_house,28.1759825,85.3590268,,node guest_house 
2852823427,Surka Hotel & Restaurant,node,guest_house,28.1713246,85.3617532,,node guest_house 
2852823434,Namaste Guest House,node,guest_house,28.1621807,85.3977271,,node guest_house 
2852823439,Hotel Village View,node,guest_house,28.1764057,85.359008,,node guest_house 
2852823441,Pangsang View Hotel & Lodge,node,guest_house,28.1630498,85.3964409,,node guest_house 
2857847364,Tranquil Valley Hotel & Lodge,node,guest_house,28.1539804,85.3565717,,node guest_house 
2862517102,New Tourist Hotel Pvt Ltd,node,hotel,27.8055024,84.9059478,,node hotel 
2864041128,Nepal Air lines,node,information,27.1654499,87.0515988,,node information 
2865346149,Alu Bari,node,camp_site,28.7569152,83.6593941,,node camp_site 
2865346154,Eagle Nest Guest House,node,guest_house,28.5947017,83.643374,,node guest_house 
2865346156,Hidden Valley Camp,node,camp_site,28.7977121,83.5611856,,node camp_site 
2865346157,Italian Base Camp,node,camp_site,28.6924741,83.4375532,,node camp_site 
2865346159,River Side Lodge and Restaurant,node,hotel,28.5423873,83.6486191,Dana,node hotel Dana
2866153078,High Plains Inn,node,guest_house,28.7116699,83.6491391,,node guest_house 
2866153079,Muri,node,camp_site,28.5173276,83.3434316,,node camp_site 
2878158505,Milan Guest House,node,guest_house,27.9374017,84.404446,,node guest_house 
2901364738,Bhaktapure Rajbhandari Hotel and Fastfood,node,hotel,27.6783932,86.0720167,,node hotel 
2901364743,Brikodar Lodge,node,hotel,27.6788134,86.0736479,,node hotel 
2901364762,Dolakha lodge,node,hotel,27.6788935,86.0710963,,node hotel 
2901364766,Gaurishankar Resort,node,hotel,27.6796924,86.0741239,,node hotel 
2901364768,Goldi Guest House,node,hotel,27.679533,86.0726025,,node hotel 
2901364769,Dolakha Darshan,node,hotel,27.6786922,86.0759508,,node hotel 
2901364796,Sandesh Upadesh hotel,node,hotel,27.6782214,86.0740237,,node hotel 
2901364800,Shankar Hotel & Lodge,node,hotel,27.6794082,86.0726265,,node hotel 
2905131439,Dolakha Information Center,node,information,27.678349,86.0717453,,node information 
2905131445,Lalbhairab Resort,node,hotel,27.6788077,86.0699526,,node hotel 
2905467071,Abhayapur Lodge,node,hotel,27.6785241,86.0715884,,node hotel 
2950192591,Hotel Harati,node,hotel,27.709551,85.3078338,,node hotel 
2962824642,Hotel Double Tree Pokhara,node,hotel,28.2122507,83.9579385,,node hotel 
2984197029,Machan Wildlife Resort,node,hotel,27.5349021,84.7385204,,node hotel 
3040917660,Baghmara Wildlife Resort,node,hotel,27.5930023,84.4834844,,node hotel 
3043193221,Splendid View,node,hotel,28.2064854,83.9613731,,node hotel 
3043193222,Lotus Inn,node,hotel,28.2066935,83.9608068,,node hotel 
3043193223,Travel Inn,node,hotel,28.2060962,83.9617135,,node hotel 
3060871360,KTM Holiday,node,hotel,27.7123216,85.311179,,node hotel 
3067780649,Suraj Chok,node,artwork,27.7054499,85.3115164,,node artwork 
3072779005,Dhandhur Cave,node,attraction,27.988781,84.0467698,,node attraction 
3072782064,Chamera (BAT) Cave,node,attraction,27.9888072,84.0467333,,node attraction 
3074563860,new purbanchal hotel and guest house,node,hotel,27.708108,85.3399997,,node hotel 
3074563887,Radhe Krishna Boys Hostel,node,hostel,27.7100441,85.3376149,,node hostel 
3074569314,Logo Girls Hostel,node,hostel,27.7082711,85.3377956,,node hostel 
3074585032,Pratima jati Nagarik Samaj Nepal,node,information,27.7143655,85.345305,,node information 
3074585434,Rastriya yatayat upovokta Sangh Nepal,node,information,27.7143925,85.345305,,node information 
3093794136,Karma/Impressions Beijing,node,guest_house,28.206352,83.960289,Pokhara,node guest_house Pokhara
3094285290,Thamel Base Camp,node,hotel,27.7148498,85.3117621,Kathmandu,node hotel Kathmandu
3096764809,hostel,node,hostel,27.7217794,85.3140337,,node hostel 
3104190478,Temple Bell,node,artwork,27.5881159,85.379687,,node artwork 
3111728284,Hotel Unicorn,node,hotel,28.2137481,83.9581903,,node hotel 
3111728286,Golden Holiday,node,hotel,28.206939,83.9608764,,node hotel 
3121926133,Hotel Jomsom,node,guest_house,28.2259716,84.3782181,,node guest_house 
3121926135,Hotel The Tukuche,node,motel,28.2261016,84.3781377,,node motel 
3123521139,Gauthali Dadha,node,viewpoint,28.2287625,84.382921,,node viewpoint 
3123595025,Tamu Sangrahalaya,node,museum,28.2331112,84.3773627,,node museum 
3123694617,Kokaale Dada,node,viewpoint,28.2119512,84.3785086,,node viewpoint 
3123793581,Village View Area,node,viewpoint,28.3090478,84.2646431,,node viewpoint 
3123793582,Hotel Annapurna,node,hotel,28.3092414,84.2650937,,node hotel 
3138749475,Hira,node,guest_house,27.675061,85.3244616,,node guest_house 
3138768242,Blue Mountain,node,guest_house,27.7209185,85.3120925,,node guest_house 
3144947770,Riverside Springs Resort,node,hotel,27.8746269,84.616457,,node hotel 
3151990585,Hotel Green Park,node,hotel,28.2042609,83.9655482,,node hotel 
3151993415,Sunroute,node,hotel,28.2044944,83.9653856,,node hotel 
3155747903,Nepal Scouts Training Camp,node,guest_house,27.81343,85.274887,,node guest_house 
3156046161,New United Hotel,node,hotel,28.207062,83.9602186,,node hotel 
3172145576,Chenrezig Statue,node,artwork,27.7428965,85.3635536,,node artwork 
3172242784,Peace and Heaven Guesthouse and Restaurant,node,guest_house,27.8112361,84.8330924,,node guest_house 
3172291389,Hikers Lodge,node,guest_house,28.3095273,84.3993026,,node guest_house 
3172291390,Kamal Lodge,node,guest_house,28.3099234,84.3998122,,node guest_house 
3172291391,Mina Lodge,node,guest_house,28.3099355,84.3999894,,node guest_house 
3172294592,Superview,node,hotel,28.2366953,84.3730799,,node hotel 
3172294593,Waterfront,node,guest_house,28.2920986,84.3763853,,node guest_house 
3174982039,Dafne Hotel,node,hotel,28.5247445,84.354132,,node hotel 
3174982040,Eco Holiday home,node,hotel,28.5336596,84.3393164,,node hotel 
3174982041,Fishtail,node,guest_house,28.3789938,84.4034217,,node guest_house 
3174982042,Hotel Kalka,node,hotel,28.3393138,84.4069375,,node hotel 
3174982043,Hotel,node,hotel,28.5201153,84.3576614,,node hotel 
3174982044,Kingfisher,node,guest_house,28.5245663,84.3543119,,node guest_house 
3174982046,Manaslu Guesthaouse,node,guest_house,28.469408,84.374125,,node guest_house 
3174982048,Marsyangdi Hotel,node,hotel,28.5337344,84.3402584,,node hotel 
3174982049,Motherland Hotel,node,guest_house,28.5316626,84.322139,,node guest_house 
3174982050,Mt Kailash,node,hotel,28.5312151,84.3198595,,node hotel 
3174982051,New Himalayan Guest House,node,guest_house,28.5322054,84.3234197,,node guest_house 
3174982052,Hotel Manaslu,node,guest_house,28.5319449,84.3226449,,node guest_house 
3174982053,Pasang,node,guest_house,28.5336377,84.3400011,,node guest_house 
3174982055,Peacefull Guest House,node,guest_house,28.531825,84.3215594,,node guest_house 
3174982056,Potala,node,hotel,28.5310674,84.3196322,,node hotel 
3174984416,3 Sister Guesthouse,node,guest_house,28.5251808,84.3539174,,node guest_house 
3175042861,Airport Hotel,node,hotel,28.637717,84.0914992,,node hotel 
3175042863,Eco Cottage Lodge,node,hotel,28.6140637,84.1484068,,node hotel 
3175298537,Dhading Laxmi Hotel,node,hotel,28.7370893,83.972494,,node hotel 
3175298541,Paradise,node,hotel,28.8124419,83.8926627,,node hotel 
3175299890,Hotel Marsyangdi,node,hotel,28.665281,84.0238113,,node hotel 
3175300529,Thorong Base Camp Lodge,node,hotel,28.77723,83.972903,,node hotel 
3175300530,Thorang Lha,node,hotel,28.812461,83.8934555,,node hotel 
3176866896,OYO 105 Hotel Travel Inn,node,hotel,27.7066066,85.3443883,Kathmandu,node hotel Kathmandu
3186647123,Amphu Laptsa La BC South 1,node,camp_site,27.8615231,86.9206932,,node camp_site 
3191567009,Rising Moon Guest House,node,guest_house,28.2068521,83.9623118,,node guest_house 
3197075142,Rainbow Hotel,node,hotel,28.3836212,84.4048157,,node hotel 
3197075753,Throngla Hotel,node,hotel,28.4674761,84.3731587,,node hotel 
3199721134,H and S hotel and lodge,node,hotel,27.6485321,85.1225559,,node hotel 
3199936048,Mustang Holiday Inn,node,hotel,27.7132499,85.3135095,,node hotel 
3201155510,Manasanti Hotel,node,hotel,27.6543405,85.1262594,,node hotel 
3203680261,Kongme Dingma,node,camp_site,27.7418282,86.9229639,,node camp_site 
3208805743,Mardi Himal Base Camp (lower),node,viewpoint,28.4599914,83.8950267,,node viewpoint 
3212153306,Chitwan medical college hostel,node,hostel,27.69027,84.4350488,,node hostel 
3213920065,Hotel Sunlight,node,hotel,27.6193944,85.1517712,,node hotel 
3215823362,Saptakoshi Staff Hotel,node,hotel,27.1521512,87.2404211,,node hotel 
3231427930,Sukute Beach,node,camp_site,27.7118569,85.7657157,,node camp_site 
3235716261,Hana no ie,node,hotel,28.2978001,83.90999,,node hotel 
3235730611,New Solitary Lodge,node,hotel,28.2104508,83.9667287,,node hotel 
3235753514,Annapurna Eco Village,node,hotel,28.2936892,83.9099271,,node hotel 
3256835961,Everest,node,guest_house,27.8540082,86.7893167,,node guest_house 
3289698726,Kirti Girls Hostel,node,hostel,27.6772402,85.2796189,,node hostel 
3307481392,Kirtipur Guest House,node,guest_house,27.679491,85.276248,,node guest_house 
3307546636,Newa Civilization Guest house,node,guest_house,27.6791932,85.275328,,node guest_house 
3316604575,Betana Wetlands,node,attraction,26.658945,87.430644,,node attraction 
3316604584,Elephant Stable,node,attraction,26.6212249,87.0298903,,node attraction 
3316604588,Koshi Tappu Wildlife Reserve Office,node,information,26.6195661,87.0289326,,node information 
3316604589,Lookout Tower,node,viewpoint,26.6240235,87.0289127,,node viewpoint 
3323568646,Taj Mahal,node,hotel,27.7099724,85.3163486,,node hotel 
3340046762,YAK,node,hotel,28.3494095,83.5666975,,node hotel 
3341076709,Donosti Lakeside Hotel,node,hotel,28.2103765,83.9580688,,node hotel 
3341634379,Hotel Mirchi,node,hostel,27.7094241,85.3164452,,node hostel 
3343068477,anamol hotel,node,hotel,27.701038,84.4285126,,node hotel 
3343357059,Hotel Muktinath,node,hotel,27.6979595,84.4209567,,node hotel 
3343360370,narayani bhojanalaya,node,hotel,27.6997193,84.4245334,,node hotel 
3343362294,new gita hotel.com,node,hotel,27.698329,84.4215766,,node hotel 
3343362295,welcome khaja ghar,node,hotel,27.6983001,84.421511,,node hotel 
3343362302,hotel satunchali,node,hotel,27.7032944,84.4313618,,node hotel 
3343362899,hotel tirupati,node,hotel,27.6978612,84.4206381,,node hotel 
3345298956,pancha kanya parti placee,node,party palace,27.7001636,84.42447,,node party palace 
3347197950,shanti ban vatika,node,picnic_site,27.7175459,84.4180121,,node picnic_site 
3356227262,Hotel Gauri Shankar,node,hotel,27.8670829,83.5429921,Tansen,node hotel Tansen
3359330220,Indreni Restaurant and Lodge,node,hotel,27.8650684,83.5473654,,node hotel 
3360758100,hotel chahara and restaurant,node,hotel,27.8012297,84.8667996,,node hotel 
3365537201,Bliss,node,hotel,27.7110529,85.3129961,,node hotel 
3365537203,Kantipur Temple House,node,hotel,27.7113584,85.3129704,,node hotel 
3365537205,Mums Home,node,hotel,27.711171,85.3130212,,node hotel 
3366227355,image,node,hotel,27.7030259,84.4308853,,node hotel 
3371264213,Lotus Girls Hostel,node,hostel,27.7006235,85.3286254,,node hostel 
3374636659,lama hotel,node,hotel,27.6897408,84.4353475,,node hotel 
3375280735,Nawarpani,node,camp_site,28.9975615,83.0852868,,node camp_site 
3380882370,Paudel Khaja Ghar,node,hotel,27.6868222,84.4294169,,node hotel 
3392269854,gorkhali khaja fhar,node,hotel,27.6878591,84.4316796,,node hotel 
3392281246,subhakamana girls hostel,node,hostel,27.6889924,84.4337166,,node hostel 
3392281249,Hotel Sky,node,hotel,27.6830973,84.4309539,,node hotel 
3392281259,hotel ashoka,node,hotel,27.6851602,84.4294532,,node hotel 
3392281649,namaste party palace,node,hotel,27.6723394,84.4327636,,node hotel 
3392281652,chaar tale hotel,node,hotel,27.6740316,84.4320509,,node hotel 
3392281800,holiday party venue,node,hotel,27.6675541,84.4223473,,node hotel 
3392283800,Dipanjali Girls Hostel,node,hostel,27.6870242,84.4313805,,node hostel 
3392361327,CFC,node,hotel,27.6833385,84.4337483,,node hotel 
3392361333,aasha manakamana girls hostel,node,hostel,27.6743327,84.4359605,,node hostel 
3392362856,CMT Resort,node,hotel,27.6704041,84.437481,,node hotel 
3393135118,Chulu West,node,hotel,28.6843493,83.9988898,,node hotel 
3393435244,Galaxy Guest House,node,guest_house,27.7032463,84.4333816,,node guest_house 
3393435245,Hotel Royal Satanchuli,node,hotel,27.7033307,84.4327105,,node hotel 
3393435706,Laliguras hotel and guest house,node,hotel,27.7026636,84.4322886,,node hotel 
3397858914,little flower hostel,node,hostel,27.6855474,84.4128505,bharatpur 4,node hostel bharatpur 4
3404903237,Kala Kendra,node,gallery,28.2088797,83.9635642,,node gallery 
3416542472,Asmita Bed and Breakfast,node,guest_house,27.7174964,85.3119443,,node guest_house 
3438850024,Roshmit Hotel & Lodge,node,hotel,27.5397224,84.808487,,node hotel 
3442364111,KHAJA GHAR,node,hotel,27.5400911,84.8078473,,node hotel 
3442364165,suvaramba hotel,node,hotel,27.5393542,84.8076325,,node hotel 
3442380613,shital hotel,node,hotel,27.53836,84.8079947,,node hotel 
3444177627,Thapa Hotel,node,hotel,27.539872,84.8068422,,node hotel 
3444237175,Secret Garden Guesthouse,node,hostel,27.7152203,85.306707,,node hostel 
3445967996,Nigam hotel,node,hotel,27.5359616,84.8094604,,node hotel 
3447933890,gauri hotel,node,hotel,27.5388022,84.8075174,,node hotel 
3447933891,giwan hotel,node,hotel,27.538818,84.8074986,,node hotel 
3448045793,Kathmandu Peace,node,guest_house,27.7166893,85.3113578,,node guest_house 
3451943961,Haarlem Homestay,node,guest_house,28.2042524,83.9682029,Pokhara,node guest_house Pokhara
3453240298,Bote Cottage,node,hotel,27.5699636,84.1044135,,node hotel 
3453240299,Amaltari home stay office,node,hotel,27.5681671,84.1077927,,node hotel 
3453241286,Solitary river view cottage,node,hotel,27.5664653,84.0648969,,node hotel 
3453242679,Tikauli Biodiversity Information Center,node,information,27.6354895,84.4819711,,node information 
3453243497,Hotel Star Chitwan Pvt. Ltd.,node,hotel,27.6250055,84.5027112,,node hotel 
3458928858,Buddha,node,hotel,27.764083,85.4980812,,node hotel 
3458928864,Sherpa Lodge,node,hostel,27.731159,85.5150903,,node hostel 
3469211699,Water Kingdom,node,hotel,27.8053536,84.9051169,,node hotel 
3476012631,Sunset Guest House,node,guest_house,28.2185042,83.8109024,,node guest_house 
3476013169,Hotel President,node,hotel,28.2159728,83.960064,,node hotel 
3476013201,The Happy Heart Hotel,node,hotel,28.2187485,83.8114198,,node hotel 
3476013202,Green Village,node,guest_house,28.2184976,83.8113775,,node guest_house 
3476013211,Sunrise/Annapurna Viewpoint,node,viewpoint,28.219246,83.8112043,,node viewpoint 
3476013217,Mount Everest,node,hotel,28.2121066,83.9638667,,node hotel 
3476013218,Lake Top,node,hotel,28.2125073,83.9627334,,node hotel 
3476013219,Himsagar,node,hotel,28.2127346,83.9622864,,node hotel 
3476013220,Bonny,node,guest_house,28.2128265,83.9621565,,node guest_house 
3476013221,Silent Peak,node,guest_house,28.2128784,83.962078,,node guest_house 
3476013222,Alpine Villa,node,hotel,28.2129702,83.9619828,,node hotel 
3476013224,Mountain Village,node,hotel,28.2148314,83.960485,,node hotel 
3476013308,Tibet Home,node,hotel,28.2154677,83.9603517,,node hotel 
3476013309,Old Durbar,node,hotel,28.2164175,83.9595972,,node hotel 
3476013844,Harry's Homestay & Korean Restaurant,node,guest_house,28.2345683,83.9162557,,node guest_house 
3476199617,Sunset Viewpoint,node,viewpoint,28.2185291,83.8107718,,node viewpoint 
3476216927,View Point Guest House,node,guest_house,28.2640239,83.8206008,,node guest_house 
3476380383,Hotel Mountain,node,hotel,27.7088778,85.3151627,,node hotel 
3476380390,Yellow Pagoda,node,hotel,27.7104313,85.3151693,,node hotel 
3476434358,Ashoka,node,hotel,27.7094993,85.3134915,,node hotel 
3476434363,Koohinoor Inn,node,hotel,27.7101832,85.3138659,,node hotel 
3476798419,Jhule Organic Farm House,node,guest_house,27.7734201,85.4933262,,node guest_house 
3477018009,Backpackers,node,hotel,27.7121545,85.3120383,,node hotel 
3477018010,Buddha Land,node,hotel,27.7119604,85.3129168,,node hotel 
3477018014,Golden Gate,node,hotel,27.7128102,85.3121076,,node hotel 
3477018017,Kathmandu Home,node,hotel,27.7117467,85.313335,,node hotel 
3477018022,Namaste,node,hotel,27.7115704,85.3128566,,node hotel 
3477018023,Namaste,node,guest_house,27.7126634,85.3120799,,node guest_house 
3477018026,Peak Point,node,hotel,27.7118684,85.3129273,,node hotel 
3478158719,Hotel Pacific,node,hotel,27.7100028,85.3146285,,node hotel 
3478158720,Kailash Parbat,node,hotel,27.710185,85.3140911,,node hotel 
3478158721,Nepa,node,hotel,27.7102337,85.3133489,,node hotel 
3478852271,Riverside Lodge,node,guest_house,27.6089272,86.2950638,,node guest_house 
3479634380,ROKPA Guest House,node,guest_house,27.7236395,85.3613549,,node guest_house 
3479910119,Ghāra (camp site),node,camp_site,29.0839701,84.0302158,,node camp_site 
3480343693,Shechen Guesthouse,node,guest_house,27.7250126,85.360569,,node guest_house 
3480344951,Lotus Guest house,node,guest_house,27.7226062,85.3651748,,node guest_house 
3480344952,Pema,node,guest_house,27.7223463,85.3651298,,node guest_house 
3482195812,Buddha Garden,node,hotel,27.7116346,85.3120125,,node hotel 
3482195822,Jiu Ding Yuan,node,hotel,27.712351,85.312061,,node hotel 
3482195842,Well Adventure,node,hotel,27.7132278,85.3121726,,node hotel 
3483068290,Nirvana Garden Hotel,node,hotel,27.7124418,85.3093394,Kathmandu,node hotel Kathmandu
3483518261,Sarangkot View Point Lodge,node,guest_house,28.2450727,83.9483031,,node guest_house 
3483520342,Fewa View,node,guest_house,28.2418085,83.9501173,,node guest_house 
3483590150,Mountain View Lodge & Restaurant,node,guest_house,28.2449105,83.9477617,,node guest_house 
3485963579,Sarangkot View Point,node,viewpoint,28.2462534,83.9488094,,node viewpoint 
3486820243,PRK,node,guest_house,27.722509,85.3632997,,node guest_house 
3486820244,Happiness,node,guest_house,27.7228937,85.3623152,,node guest_house 
3486820245,Dragon Guesthouse,node,guest_house,27.7252906,85.3610347,,node guest_house 
3488413722,Kathmandu Beijing Hotel,node,hotel,27.7103307,85.3132707,,node hotel 
3488413728,Nepal Youth Hostel,node,guest_house,27.7112397,85.3120563,,node guest_house 
3492999266,Dharapani,node,camp_site,28.4516641,83.3760277,,node camp_site 
3493000021,Dobhan,node,camp_site,28.6289303,83.3925491,,node camp_site 
3493062146,Dhaulagari Base Camp,node,camp_site,28.7471549,83.4995489,,node camp_site 
3495460874,Junction to Jhong,node,information,28.75557,83.6713271,,node information 
3495460888,Junction Chhettrasum,node,information,28.7576707,83.6666746,,node information 
3497356433,Spontaneous camp,node,camp_site,27.9413872,85.5146399,,node camp_site 
3497356434,Spontaneous camp,node,camp_site,27.9495573,85.5056083,,node camp_site 
3497356435,Spontaneous camp,node,camp_site,27.9502045,85.507108,,node camp_site 
3497356926,sponteneous camp site,node,camp_site,27.9365067,85.5080558,,node camp_site 
3497356927,sponteneous camp site,node,camp_site,27.9368293,85.5082099,,node camp_site 
3499991964,Thinigaon,node,hotel,28.7716485,83.727162,,node hotel 
3500477826,Korean Monastery,node,hostel,27.478861,83.2715349,,node hostel 
3506712472,Jagat,node,hotel,27.7113236,85.3122873,,node hotel 
3506712474,Kailash,node,hotel,27.7103008,85.3140648,,node hotel 
3506712478,Lucien,node,guest_house,27.7119318,85.3122451,,node guest_house 
3506712487,Shan Dong,node,hotel,27.7126345,85.3122289,,node hotel 
3506878011,Fuji Hotel,node,hotel,27.7126185,85.3128365,,node hotel 
3506878014,Hotel Holy Himalaya,node,hotel,27.7127604,85.312853,,node hotel 
3506878022,Sacred Valley Inn,node,hotel,27.7126737,85.3126273,,node hotel 
3508175155,Himal Lodge,node,guest_house,27.7102359,85.3110336,,node guest_house 
3517707308,Lonely Planet Hotel,node,guest_house,28.3783155,83.7967882,,node guest_house 
3517720166,Nisha Guesthouse,node,guest_house,28.3869496,83.779461,,node guest_house 
3517720177,Hillside Paradise Lodge,node,guest_house,28.3870182,83.779569,,node guest_house 
3521349635,Broadway Inn,node,hotel,28.2061397,83.9614157,,node hotel 
3521349641,Glacier Hotel,node,hotel,28.2058277,83.9612735,,node hotel 
3521349642,Himalayan Inn,node,hotel,28.2071891,83.9627781,,node hotel 
3521349643,Hotel Holiday,node,hotel,28.2071115,83.9627361,,node hotel 
3521349646,Pacific Guest House,node,guest_house,28.2073413,83.9629538,,node guest_house 
3521349652,Royal Guesthouse,node,guest_house,28.206671,83.9626167,,node guest_house 
3521349653,Shanti Guest House,node,guest_house,28.2072938,83.962609,,node guest_house 
3521349654,Trekker's Inn,node,hotel,28.2061417,83.9617524,,node hotel 
3531968326,Machhapuchhre view point,node,viewpoint,28.1885578,83.9035482,,node viewpoint 
3536743542,Paha,node,camp_site,28.9556356,83.9307499,,node camp_site 
3542015306,Home Stay,node,guest_house,28.4280867,83.6211451,,node guest_house 
3570260250,Sangso Guesthouse,node,guest_house,28.5521641,84.2408027,,node guest_house 
3579825919,Garment Chowk,node,information,26.5596042,88.0674536,,node information 
3616496064,Proposed Location of Sewalaya,node,information,28.0546812,84.9181775,,node information 
3616498898,Ganga Jamuna,node,attraction,28.0883848,84.9148293,,node attraction 
3625549297,Hotel Mahabharat,node,hotel,27.2110102,85.9137966,,node hotel 
3626541687,Cyber,node,guest_house,27.7226726,85.3628298,,node guest_house 
3626541688,Stupa,node,guest_house,27.7227092,85.3630324,,node guest_house 
3626551799,Kailash,node,guest_house,27.7237575,85.3637447,,node guest_house 
3634990906,Monai,node,hotel,28.212325,83.9570306,,node hotel 
3634990908,Hotel New Family & Restaurant,node,hotel,28.2116471,83.9577686,,node hotel 
3634990910,Hotel Panas,node,hotel,28.2117391,83.9575011,,node hotel 
3634990914,Simrik,node,hotel,28.2126457,83.9572696,,node hotel 
3634990919,Hotel Vimal and Thakali Kitchen,node,hotel,28.2128067,83.9572454,,node hotel 
3634990921,Yeti Guest House,node,guest_house,28.2122352,83.9572451,,node guest_house 
3635819236,Mountain Top,node,hotel,28.2113272,83.9569503,,node hotel 
3640122864,Hotel Prakash,node,hotel,27.4787076,83.4693675,,node hotel 
3640402159,Riverbank,node,hotel,27.7044252,84.3505922,,node hotel 
3640850664,Swayambhu View,node,guest_house,27.7116665,85.2879722,,node guest_house 
3640898941,Dhakhwa House,node,guest_house,27.6758447,85.3233888,Patan,node guest_house Patan
3668020042,NOname,node,hotel,27.140405,87.2667028,,node hotel 
3668022335,Bhim hotal,node,hotel,27.1404566,87.2665764,,node hotel 
3672689888,Ram hotel,node,hotel,26.7423158,87.0039735,,node hotel 
3673012564,Landmark forest park,node,hotel,27.5876832,84.4843642,,node hotel 
3691014735,Paldor Basecamp,node,camp_site,28.2329783,85.1939125,,node camp_site 
3691014736,Paldor High Camp,node,camp_site,28.2445618,85.1956133,,node camp_site 
3691564912,Shakya House,node,guest_house,27.679198,85.3254783,Lalitpur Municipality,node guest_house Lalitpur Municipality
3700834728,Bashu Hotel,node,hotel,26.730764,86.9827122,,node hotel 
3706552393,Hotel Nilkamal,node,hotel,28.2101514,83.9848188,,node hotel 
3706552394,Hotel Park,node,hotel,28.210064,83.9850441,,node hotel 
3706567226,Miracle Hostel,node,hostel,28.2103107,83.9836414,,node hostel 
3722266436,3 rooms by Pauline,node,hotel,27.6946019,85.3226253,Kathmandu,node hotel Kathmandu
3730218588,PunHill Guest House,node,guest_house,28.2078442,83.963861,,node guest_house 
3732172910,high camp,node,camp_site,29.2212912,83.1259887,,node camp_site 
3740850034,Small Water Fall Daatola,node,attraction,29.6056242,81.3479403,,node attraction 
3741083586,Barahi Jungle Lodge,node,hotel,27.5688625,84.1958172,Meghauli,node hotel Meghauli
3743792763,Tiger Tops Tharu Lodge,node,hotel,27.5673104,84.1037818,,node hotel 
3751762355,Gaju Suite Hotel Pvt. Ltd.,node,hotel,27.7165841,85.3118801,Kathmandu,node hotel Kathmandu
3774438657,mount agrol,node,information,27.6995234,85.3364673,,node information 
3800190161,Chaudhary Hotel,node,hotel,27.5815294,84.2095446,,node hotel 
3846343827,Overlander Camping,node,caravan_site,28.2359275,83.9067704,,node caravan_site 
3846344257,Rock Regency Guest House,node,hotel,27.8643731,83.5444577,,node hotel 
3851245541,Fire and Fish Home Stay & Restaurant,node,hotel,28.2271007,83.940148,Sarangkot,node hotel Sarangkot
3851256257,LB Guest House,node,hotel,28.1998639,83.97057,Pokhara,node hotel Pokhara
3874189857,Lotus Convention Centre Pvt. Ltd,node,information,27.6711493,85.3120673,,node information 
3874455153,Resham Hotel & Resturant,node,hotel,27.871067,83.9276712,साँखर (Sakhar),node hotel साँखर (Sakhar)
3877763445,Baudha Stupa View,node,guest_house,27.7219121,85.3616605,,node guest_house 
3877763446,Baudha Chorten,node,hotel,27.7213554,85.3630968,,node hotel 
3877763447,Padma,node,hotel,27.7213553,85.3613112,,node hotel 
3877763477,Happiness,node,guest_house,27.7217463,85.3625029,,node guest_house 
3877763478,Khasyor,node,guest_house,27.7213792,85.3629828,,node guest_house 
3877763479,Kunzom,node,guest_house,27.7212037,85.3625919,,node guest_house 
3877763480,Yoga,node,guest_house,27.7216368,85.3614074,,node guest_house 
3877763909,Mandala,node,hotel,27.7214477,85.3630454,,node hotel 
3877763910,Comfort,node,guest_house,27.7213882,85.362881,,node guest_house 
3880466657,Tibet Peace Inn,node,hotel,27.716965,85.308838,Kathmandu,node hotel Kathmandu
3908957580,SBimochan,node,hotel,27.6884485,85.3450754,Kathmandu,node hotel Kathmandu
3942819957,Family Home Pokhara,node,hotel,28.209084,83.959708,,node hotel 
3944316658,Shankhapura Paragliding Take off site,node,attraction,27.7751432,85.501957,singhupalchwok,node attraction singhupalchwok
3946893397,Limbu Niwas,node,apartment,26.6516513,88.069805,,node apartment 
3973320783,Hotel Paras,node,motel,27.6364158,86.2309027,,node motel 
3973407694,Hotel Gauri Himal,node,motel,27.6366857,86.2285844,,node motel 
3990922538,Dhading Hotel And Lodge,node,hotel,28.0793568,81.6294071,,node hotel 
3990982779,Sankar Hotel,node,hotel,28.0659671,81.6255183,,node hotel 
4040347885,Naudada MoMo and Resturant,node,hotel,28.242583,83.9848737,,node hotel 
4040404795,A-One Mo:Mo,node,hotel,28.2632908,83.9797445,,node hotel 
4040413663,Family Taas House And Guest House,node,hotel,28.2451934,83.9889681,,node hotel 
4040424249,Rasmi Hotel And lodge,node,hotel,28.24517,83.9889622,,node hotel 
4040439264,Aamako Aasirbad hotel,node,hotel,28.259753,83.9751145,,node hotel 
4040454014,Sijan Hotel,node,hotel,28.2564832,83.9779314,,node hotel 
4051289892,Hidden Paradise,node,guest_house,28.2268643,83.9479862,,node guest_house 
4054006389,Baidam,node,guest_house,28.2127502,83.9589653,Pokhara,node guest_house Pokhara
4054992589,Family Cottage,node,guest_house,28.2126462,83.9598677,,node guest_house 
4059460329,Hotel Celebration,node,guest_house,28.2130003,83.9585328,Pokhara,node guest_house Pokhara
4061436885,R & R Guest House,node,hotel,28.2094747,83.9617331,,node hotel 
4061466542,Hotel Nightingale,node,hotel,28.204789,83.9640127,,node hotel 
4061466555,Santosh Guest House and Apartment,node,guest_house,28.2060558,83.9645103,,node guest_house 
4061844969,Hotel Asia,node,hotel,28.2040825,83.9660356,,node hotel 
4061844970,Hotel Dahlia,node,hotel,28.2041727,83.965882,,node hotel 
4061844971,Hotel Miracle,node,hotel,28.2064835,83.9653883,,node hotel 
4061845193,Hotel Discovery,node,hotel,28.2045795,83.966763,,node hotel 
4061845194,Mount Grace Spa,node,hotel,28.2042865,83.9651103,,node hotel 
4062775505,Hotel Rara,node,hotel,28.2046206,83.9652449,,node hotel 
4063123590,Hotel Rabi,node,hotel,28.211437,83.9819,,node hotel 
4066114502,Sunset view point,node,viewpoint,27.9369137,84.4011917,,node viewpoint 
4067930230,Hotel whitehouse,node,hotel,29.1473605,81.6142503,,node hotel 
4067937090,National Park Office,node,information,28.975866,82.8795863,,node information 
4067938717,Hotel bluesheep,node,hotel,28.9505862,82.8955974,,node hotel 
4068343419,Hotel Dhaulagiri,node,hotel,28.2119581,83.9814148,,node hotel 
4069373398,Hotel Daju Bhai,node,hotel,28.2072232,83.9610753,,node hotel 
4094978728,Solukhumbu Nachiring hotel,node,hotel,27.7524935,85.3670972,,node hotel 
4094978731,Solukhumbu sherpa hotel,node,hotel,27.7554904,85.3681558,,node hotel 
4099055586,Hotel Bikas,node,hotel,28.7079147,80.5872607,,node hotel 
4099055587,Hotel Kanchan,node,hotel,28.9652896,80.1819936,,node hotel 
4100849635,Hotel Shamiksha,node,hotel,28.348524,83.5675977,,node hotel 
4104031489,Hotel Gurkha Summit,node,guest_house,28.2150194,83.9584036,,node guest_house 
4104400789,Dumre Phat,node,attraction,27.8637394,85.3090635,,node attraction 
4104680094,Chanpako Bot (चाँपाबोट),node,attraction,27.8390151,85.3144022,,node attraction 
4109452511,Pilot Pen (Fair Trade Ltd),node,artwork,27.7032452,85.3090335,Kathmandu,node artwork Kathmandu
4113062889,Danphe Ghar Bed & Breakfast,node,guest_house,27.6831005,85.3090782,,node guest_house 
4115449791,Pokhari Chaur(पोखरीचौर),node,attraction,27.8510027,85.3173023,,node attraction 
4115481689,Gurje Bhanjyang(गुर्जे),node,viewpoint,27.8135536,85.3155919,,node viewpoint 
4115482189,Chanpko Bot(चाँपाबोट ),node,attraction,27.8390137,85.3144214,,node attraction 
4117908590,Hotel Mansarover,node,hotel,28.1970088,81.6902436,,node hotel 
4121238589,Wild Trak Adventure,node,hotel,28.4430538,81.2382193,,node hotel 
4121409191,Er. Abeey Poudel Flat,node,attraction,27.7492953,85.3397631,,node attraction 
4121434404,The Life Story Guest House,node,guest_house,27.6745833,85.3211857,"Kathmandu, Patan","node guest_house Kathmandu, Patan"
4124780390,Hotel Rosemani Pvt. Ltd.,node,guest_house,27.6414218,85.7048091,,node guest_house 
4127963199,Shree Ram Pati,node,viewpoint,27.6341065,85.637473,,node viewpoint 
4131826922,The Pipal Tree House,node,hotel,28.2155637,83.9735255,,node hotel 
4131891291,White Guest House,node,hotel,29.1472926,81.614239,,node hotel 
4131891292,Hotel Pop Life,node,hotel,28.1959541,81.6891904,,node hotel 
4131891489,Danfe Guest House,node,camp_site,29.5379086,82.0760811,,node camp_site 
4131891989,Hotel Hill Side 2,node,hotel,29.1510169,81.6061903,,node hotel 
4131892093,Hamro Guest House and Restaurant,node,guest_house,28.1948294,81.6893646,,node guest_house 
4131896435,Patan Heaven Home,node,guest_house,27.6774278,85.3214917,,node guest_house 
4135901791,Bajra Creation Record,node,artwork,27.6921046,85.3264564,,node artwork 
4140692817,Hotel Yala Peak,node,hotel,27.7122431,85.3114938,,node hotel 
4144009690,Bojepokhari,node,viewpoint,27.6648498,85.3487309,,node viewpoint 
4144009691,Bojepokhari Chowk,node,viewpoint,27.6651009,85.3478064,,node viewpoint 
4144172491,Deep Kiran Offset Press,node,artwork,27.6916111,85.3294343,,node artwork 
4146017889,Kamakshi Girls Hostel,node,hostel,27.6954402,85.3418733,,node hostel 
4147034196,Ashoka Intl,node,hotel,27.5011134,83.4578493,,node hotel 
4152682389,Pushkar Backpackers Hostel Pokhara,node,hostel,28.2168207,83.9607263,,node hostel 
4154562593,Dharke,node,hotel,27.7298131,85.1373761,,node hotel 
4154880838,Nature Cure Wellness,node,attraction,28.2229913,83.9921507,"Mahendrapul, Pokhara","node attraction Mahendrapul, Pokhara"
4157093692,Mirage Inn,node,hotel,27.7042064,85.341767,,node hotel 
4157626091,ram kumar family's house,node,viewpoint,27.6332563,85.3200805,,node viewpoint 
4158622990,Barchet Bomotang -1,node,viewpoint,28.0058507,85.1059248,,node viewpoint 
4158622993,Jyar Gang Hight,node,alpine_hut,28.000972,85.0963103,,node alpine_hut 
4158627593,Bomotang 'Potere Bann'(jungal),node,viewpoint,27.9969391,85.097747,,node viewpoint 
4158627594,Lungpacget 'Shyong '(River ),node,viewpoint,27.9902804,85.0950963,,node viewpoint 
4158627595,Ralu,node,viewpoint,27.9816189,85.0954244,,node viewpoint 
4158627692,Wati bley,node,viewpoint,27.9898673,85.0976349,,node viewpoint 
4158627693,Nuwakot Districts,node,viewpoint,27.9112405,85.1441475,,node viewpoint 
4158677039,view to pokhara (Tiju ko Chautara),node,viewpoint,28.1959867,83.9506653,,node viewpoint 
4158699089,ganga dai,node,guest_house,26.6842766,87.2723934,,node guest_house 
4160295391,Tilak katuwal's Home,node,attraction,26.441018,87.212553,,node attraction 
4161718440,Welcome Guest House & Appartment,node,hotel,28.2118402,83.9652701,,node hotel 
4161865224,Phewa Lake View Point,node,viewpoint,28.214786,83.9557226,,node viewpoint 
4163272590,Himalaya Lodge,node,guest_house,27.7776158,86.7218617,,node guest_house 
4165957007,Fishtail Guesthouse,node,guest_house,28.5269654,83.9073557,Annapurna Rural Mun 11,node guest_house Annapurna Rural Mun 11
4165958406,Annapurna Guest House & Restaurant,node,guest_house,28.5307017,83.8783797,,node guest_house 
4168500390,Manamaiju Ajima Mai Temple,node,attraction,27.7520771,85.3121403,Kathmandu,node attraction Kathmandu
4170922289,The Gyawali Residence,node,guest_house,27.7230933,85.2999432,,node guest_house 
4171287796,Mountain Country Lodge,node,hotel,28.2144986,83.9604398,,node hotel 
4172766874,DreamLand Hostel And Tution Private Ltd.,node,hostel,28.2022507,84.000587,,node hostel 
4172772887,Blue Sky Hostel,node,hostel,28.2063677,83.9959286,,node hostel 
4172777603,Pokhara SLC Hostel,node,hostel,28.2063059,83.995462,,node hostel 
4172949863,Hotel Mustang,node,hotel,28.2120107,83.9814821,,node hotel 
4175845794,Color Bazar,node,artwork,27.69333,85.3266531,,node artwork 
4177567175,Purnabiram S.L.C. & +2ostel,node,hostel,28.2228725,83.9779073,,node hostel 
4177726796,Simaltari,node,viewpoint,28.1747623,83.1288692,,node viewpoint 
4181175790,Bikram Karki Resident,node,camp_site,27.7532775,85.3034399,,node camp_site 
4187225690,Family Peace House,node,guest_house,27.7181853,85.308305,,node guest_house 
4191244518,Kumar Hotel,node,hotel,28.2116622,83.9846167,,node hotel 
4193165298,Green Hill Hotel,node,guest_house,28.4102852,83.7896405,,node guest_house 
4193165299,River View Lodge,node,guest_house,28.407459,83.7770272,,node guest_house 
4193283090,Hotel Sanskaar,node,hotel,27.9368271,84.4053831,,node hotel 
4193320591,Deurali Pass Viewpoint,node,viewpoint,28.3954854,83.712724,,node viewpoint 
4193320690,Machhapuchhare Guest House and Restaurant,node,guest_house,28.5263167,83.907755,Annapurna Rural Mun 11,node guest_house Annapurna Rural Mun 11
4193327890,Gurjung Lodge,node,guest_house,28.4104284,83.7903508,,node guest_house 
4193343989,Tourist Check Point,node,information,28.4203383,83.8175103,,node information 
4193344089,Dream Lodge,node,guest_house,28.4973358,83.898046,,node guest_house 
4193344090,Shankar Guest House and Restaurant,node,guest_house,28.52673,83.9075282,Annapurna Rural Mun 11,node guest_house Annapurna Rural Mun 11
4193344289,Deurali Guest House,node,guest_house,28.4983007,83.8991697,,node guest_house 
4193344390,Snowland Lodge And Restaurant,node,guest_house,28.5306269,83.8780384,Annapurna Rural Municipal,node guest_house Annapurna Rural Municipal
4193344490,Annapurna Sanctuary Lodge & Restaurant,node,guest_house,28.5304557,83.8782661,,node guest_house 
4194830192,Nepali Travellers Airbnb,node,hostel,27.6717186,85.3107638,,node hostel 
4196693146,Safal Hostel,node,hotel,28.2272733,83.986219,,node hotel 
4198118789,Roof Top Terrace,node,hotel,27.7117336,85.3114411,,node hotel 
4198130891,V-text International,node,camp_site,27.7152762,85.3104866,,node camp_site 
4198412390,Rahul Kumar Shakya,node,artwork,27.662133,85.3388724,,node artwork 
4199764189,Dormitory Nepal,node,hostel,27.7324951,85.3387416,,node hostel 
4201543290,Ambrosia Geula - Guest house & Restaurant,node,guest_house,28.1786679,84.1278433,,node guest_house 
4201550390,Hotel Village Inn,node,hotel,28.2146185,83.9605185,,node hotel 
4201650826,Hotel Pacific,node,hotel,26.4463712,87.2768285,,node hotel 
4203903289,Holi Mount Home Stay,node,guest_house,28.2934471,83.9223491,,node guest_house 
